stop_id,stop_code,stop_name,stop_desc,stop_lat,stop_lon,location_type
be76358b-3540-4183-86a1-057a470a8cd0,BUS534S,"6th St & Ferry St (SW Corner) - BUS534S","6th St & Ferry St (SW Corner) BUS534S",40.4200178635131,-86.8907039994421,0
aae3142a-6f3b-44c2-b72f-afe5227e88ef,BUS532SW,"8th St & Ferry St (SW Corner) - BUS532SW","8th St & Ferry St (SW Corner) BUS532SW",40.4200433445003,-86.8883369498454,0
30bfcf85-23c8-4221-a04c-e1e6e9ef591d,BUS794S,"(West of) 10th St & Ferry St - BUS794S",,40.419985677003,-86.8863333395918,0
0c2a0b43-dcff-4baf-8aab-1654b3807f85,BUS215,"Depot/Riehle Plaza/Downtown Transfer Center-BUS215","Depot/Riehle Plaza/Downtown Transfer Center BUS215",40.4196825873663,-86.8959383306467,0
88b497bf-c24f-477f-b217-b0a9048ea30f,BUS549S,"Fowler House Apts on Ferry St - BUS549S","Fowler House Apts on Ferry St BUS549S",40.4200218868269,-86.8928752477691,0
103ece3c-f8db-47a4-9f58-bf0fb2a381bf,BUS796S,"Erie St & Ferry St (SW Corner) - BUS796S",,40.4199642193296,-86.8842894962007,0
079b54ac-7604-4a67-ac2d-5a7ece1d9b02,BUS487E,"(North of) Ferry St & Earl Ave - BUS487E","(North of) Ferry St & Earl Ave BUS487E",40.4195136081882,-86.8606216824425,0
7e5860c2-4718-455e-a870-a5c87b96ed2d,BUS459SE,"Cason St & Earl Ave (SE Corner) - BUS459SE","Cason St & Earl Ave (SE Corner) BUS459SE",40.4204094660526,-86.8604714787287,0
bb353e23-9fd0-42a3-b0ac-d2d7a8e871b4,BUS507E,"Portledge Commons Apts on Earl Ave - BUS507E","Portledge Commons Apts on Earl Ave BUS507E",40.4220523191722,-86.8604996419251,0
0a43ae68-7c77-44c5-b1e7-ecf2dac7e469,BUS202NE,"(North of) Earl Ave & Kossuth St - BUS202NE","(North of) Earl Ave & Kossuth St BUS202NE",40.41069986884,-86.8605117118664,0
b6715133-bfa6-4b52-93a6-ebeb5de25623,BUS226SE,"(South of) Ruger St & Earl Ave - BUS226SE","(South of) Ruger St & Earl Ave BUS226SE",40.4143597432589,-86.8606444812205,0
50fc4e92-ceea-4f6c-9e3a-61acc058d582,BUS374SE,"OFerrall St & Earl Ave (SE Corner) - BUS374SE","OFerrall St & Earl Ave (SE Corner) BUS374SE",40.4161273191051,-86.8606672799985,0
f928af7e-d193-4ca2-af5e-561997bf9b0b,BUS552SW,"36th St & Union St (SW Corner) - BUS552SW","36th St & Union St (SW Corner) BUS552SW",40.4247854903213,-86.8506586164629,0
f2e54682-15e0-42a6-9275-0dce27116abf,BUS813W,"Coleman Ct & 36th St (NW Corner @ Bench) - BUS813W",,40.422134126552,-86.8510233969106,0
ddf9eec8-94e1-4d14-b7c0-b87c18137cbc,BUS475W,"(North of) 36th & SR 26 (Laf Animal) - BUS475W","(North of) 36th & SR 26 (Laf Animal) BUS475W",40.4181497048229,-86.8500618249215,0
d34d9589-b2ae-4b0f-a411-7df4ca0e5488,BUS196E,"(South of) Union & Earl (Family Video) - BUS196E","(South of) Union & Earl (Family Video) BUS196E",40.4243549957487,-86.860551945004,0
639486c2-da79-4f9f-a0c1-3ecc46ae6806,BUS382S,"(West of) US 52 & Union St - BUS382S","(West of) US 52 & Union St BUS382S",40.4247465982882,-86.8592752134368,0
abc89616-424e-4c39-a3ac-ecb292e8a45a,BUS971,"RRX on Union St (SW Corner) - BUS971",,40.4247854903213,-86.8555348727426,0
46d497c2-a88d-4971-ac21-f6f332c22259,BUS548SW,"21st St & Ferry St (SW Corner) - BUS548SW","21st St & Ferry St (SW Corner) BUS548SW",40.4188739013001,-86.8735754116521,0
2d1fd6e5-4b9e-45fa-bff6-5dbd78608a49,BUS545S,"(East of) 23rd St & Ferry St - BUS545S","(East of) 23rd St & Ferry St BUS545S",40.4189248632744,-86.8711721522315,0
2ac16f68-2871-4404-a2ca-b496a73bffd0,BUS244,"26th St & Ferry St (SW Corner) - BUS244","26th St & Ferry St (SW Corner) BUS244",40.4190147172817,-86.8676262717024,0
29ce2623-4428-4a3a-8a50-6a086354bd7d,BUS797S,"Perrin Ave & Ferry St (SW Corner) - BUS797S",,40.4199803125847,-86.8819130588718,0
2e84ad0f-9368-4229-9d1a-729b9ef9fa7a,BUS798SW,"Asher St & Ferry St (SW Corner) - BUS798SW",,40.4192681860487,-86.8790860104016,0
b9ff93d9-29a5-4a5c-a9ef-81d6ac115574,BUS280S,"19th St & Ferry St (SW Corner) - BUS280S","19th St & Ferry St (SW Corner) BUS280S",40.4188256215349,-86.8760269508378,0
cd0b8cd0-fcbc-47af-b147-3db81adc1484,BUS383N,"Kossuth St  & 26th St (NW Corner) - BUS383NW","Kossuth St  & 26th St (NW Corner) BUS383N",40.410163427005,-86.8672252814308,0
7178b936-5e9f-4667-92ad-ad4af5443dc8,BUS533S,"(West of) 28th St & Kossuth St - BUS533S","(West of) 28th St & Kossuth St BUS533S",40.4100896662527,-86.8651318171699,0
0a9a321b-0eed-4335-a75d-1a8ccc121cfe,BUS523SW,"30th St & Kossuth St (SW Corner) - BUS523SW","30th St & Kossuth St (SW Corner) BUS523SW",40.410101736194,-86.8628371872209,0
b6944d8d-cac7-4121-a031-92c5cdbfd959,BUS799,"26th St & OFerrall St (NW Corner) - BUS799",,40.4161514589877,-86.8674264471189,0
2853c133-88ac-4034-aa8f-0c309fa87257,BUS385NW,"Ruger St & 26th St (NW Corner) - BUS385NW","Ruger St & 26th St (NW Corner) BUS385NW",40.4146561273728,-86.8673982839226,0
c38d2915-79a5-4e17-b45e-546987b67f28,BUS189,"Wallace Ave & 26th St (NW Corner) - BUS189","Wallace Ave & 26th St (NW Corner) BUS189",40.4131219037248,-86.8673070888106,0
6848a7b6-9f3a-45ae-a534-9c8d27b421be,BUS969,"(East of) Fairington Ave & Commerce Dr - BUS969",,40.4157933840629,-86.8313265938357,0
3cbae625-9cdd-4b16-83ce-e9ee5a001441,BUS970,"Commerce Dr & Park East (SW Corner) - BUS970",,40.4157866785399,-86.8291110890574,0
f293ff61-21ce-49d0-b28c-2497905befe6,BUS503,"Walmart (East Lafayette) - BUS503","Walmart (East Lafayette) BUS503",40.4139024265946,-86.8265147105762,0
84f94a24-a9df-4a25-a56d-980aa33634c8,BUS475SE,"(East of) 36th St & SR 26 - BUS475SE","(East of) 36th St & SR 26 BUS475SE",40.4174027095677,-86.8493081241434,0
cc699011-04aa-4454-947b-f9be8bad30b2,BUS302S,"Executive Dr & SR 26 (SE Corner) - BUS302S","Executive Dr & SR 26 (SE Corner) BUS302S",40.4174509893328,-86.8439276125388,0
106f73e3-ca7c-4058-88d4-8db22a3dbf0c,BUS193E,"(East of) Creasy Ln & SR 26 - BUS193E","(East of) Creasy Ln & SR 26 BUS193E",40.4175099979347,-86.8379234873011,0
c7826c7e-e6fd-4bf5-a739-b6f994317928,BUS372,"Meijer Ct & Meijer Dr (SW Corner) - BUS372","Meijer Ct & Meijer Dr (SW Corner) BUS372",40.4167455683199,-86.8142959066806,0
3c9f0e85-4c58-4cea-84a4-49bdd81a75d9,BUS257,"Meijer Store East (West Doors) - BUS257","Meijer Store East (West Doors) BUS257",40.4154,-86.81202,0
fc012b8f-508c-4670-812b-d801f5780244,BUS808,"Marketplace & Commerce Dr (at Shelter) - BUS808",,40.4153320440848,-86.8268043891671,0
269bb2b6-68f4-461e-9511-efc042356566,BUS151,"(East of) Progress Dr & SR 26 - BUS151","(East of) Progress Dr & SR 26 BUS151",40.4174697647971,-86.8251749470934,0
5df9789a-6c59-42f3-a2c6-d2bbe5ef4633,BUS277S,"Frontage Rd & SR 26 (SW Corner) - BUS277S","Frontage Rd & SR 26 (SW Corner) BUS277S",40.4173664997438,-86.8167219648792,0
43b4ca5a-9063-4bf3-84b4-977252317197,BUS122,"Wabash Landing on State St (Borders) - BUS122","Wabash Landing on State St (Borders) BUS122",40.4202404868746,-86.9007663071612,0
05dd4037-143f-408d-94df-b5978372b2a8,BUS156,"Roebuck Dr & State St (NW Corner/Wendy's) - BUS156","Roebuck Dr & State St (NW Corner/Wendy's) BUS156",40.4213294637996,-86.9023327173193,0
b2e4cf9e-1916-47be-9ecb-40bc3e2718ff,BUS396,"2nd St & Main St (Lafayette Savings Bank) - BUS396","2nd St & Main St (Lafayette Savings Bank) BUS396",40.4189852129808,-86.8955547747347,0
3904819a-fe94-43ff-ba01-a6463bf43590,BUS287,"2nd St & Columbia St (NW Corner) - BUS287","2nd St & Columbia St (NW Corner) BUS287",40.4183025907458,-86.8955547747347,0
18492511-e017-44aa-a9bd-f12ec2eabb2c,BUS581,"Littleton St & State St (SE Corner) - BUS581","Littleton St & State St (SE Corner) BUS581",40.4225377990328,-86.9052321854372,0
df321dfb-fd04-4e71-9e24-ea18a1802c9a,BUS271,"PMU on State St - BUS271","PMU on State St BUS271",40.424095,-86.911233,0
a9dda7ff-5952-4109-a703-5cfc08a3f2e0,BUS313NE,"Marsteller St & State St (NE Corner) - BUS313NE","Marsteller St & State St (NE Corner) BUS313NE",40.4241605355835,-86.9137133308478,0
3d1d0131-406e-4cff-af22-cae93da1f76b,BUS304,"Chauncey Ave & State St (SE Corner) - BUS304","Chauncey Ave & State St (SE Corner) BUS304",40.4231211795283,-86.9063734654411,0
3b710db2-9072-4d31-8fb8-2cc01308194f,BUS433,"Northwestern Ave & State St (NE Corner) - BUS433","Northwestern Ave & State St (NE Corner) BUS433",40.4237769796715,-86.9077869896762,0
1b82eefd-abef-4e2d-aae7-401e66b4de8f,BUS398,"10th St & Main St (NE Corner) - BUS398","10th St & Main St (NE Corner) BUS398",40.4191528510542,-86.8856922915991,0
52df56ab-52dc-4a0d-917e-a277663a29ec,BUS339,"(East of) 9th St & Main St - BUS339","(East of) 9th St & Main St BUS339",40.4191541921588,-86.8865264586524,0
f556a161-3310-495f-b117-646e658af618,BUS397SE,"11th St & Main St (at Trolley Station) - BUS397SE","11th St & Main St (at Trolley Station) BUS397SE",40.4187934350248,-86.8848769000099,0
31066478-071a-4e4d-b61f-f0d6faa8b6bd,BUS349,"8th St & Main St (NE Corner) - BUS349","8th St & Main St (NE Corner) BUS349",40.4191662621001,-86.8877187006306,0
1de00c8c-d052-43ce-9c1b-d889ccca8f6d,BUS371,"4th St & Main St (NE Corner) - BUS371","4th St & Main St (NE Corner) BUS371",40.419195766401,-86.8929570551489,0
14832ac6-5662-4f82-97e0-7985a2051974,BUS392,"3rd St & Main St (NE Corner) - BUS392","3rd St & Main St (NE Corner) BUS392",40.4191850375643,-86.8941144284078,0
fde34bbd-12d8-4a42-8aed-d56f7ebd2ca7,BUS350,"6th St & Main St (NE Corner) - BUS350","6th St & Main St (NE Corner) BUS350",40.4191944252964,-86.8904880816035,0
03c06cad-2954-425e-85c6-d2f8edbd3a42,BUS364,"5th St & Main St (NE Corner) - BUS364","5th St & Main St (NE Corner) BUS364",40.4192078363423,-86.8916830057909,0
72cd1dfe-3eac-42dc-8214-d4a3272f05ce,BUS568,"Earhart Hall on First St - BUS568",,40.4253836229672,-86.9238266005413,0
de0eb851-bf6f-4bdc-8798-81a3d17241bb,BUS282NE,"MacArthur Dr & 1st St (NE Shelter) - BUS282NE","MacArthur Dr & 1st St (NE Shelter) BUS282NE",40.4254466548828,-86.9257054880682,0
0f917713-d523-44d1-b3ac-3c14344c2e56,BUS547,"Russell St & State St (NE Corner) - BUS547","Russell St & State St (NE Corner) BUS547",40.4242329552312,-86.9190710436744,0
c1882797-5e02-4039-8b0f-625c6da3c6b7,BUS520NE,"Jischke Dr & State St  (NE Corner) - BUS520NE","Jischke Dr & State St  (NE Corner) BUS520NE",40.4243013515652,-86.9216861976198,0
37871f84-bba4-4d35-a6cd-72980799207e,BUS435,"Class of 1950 - BUS435","Class of 1950 BUS435",40.4259066537563,-86.9147084304517,0
27147900-f908-4d0a-a4d2-2814033e54dc,BUS538,"Electrical Engineering - BUS538","Electrical Engineering BUS538",40.4287323611219,-86.9114093131667,0
e3697aa5-d774-4ec9-8ebc-2c50cb50efa1,BUS273,"Waldron St & Stadium Ave - BUS273","Waldron St & Stadium Ave BUS273",40.4313287396031,-86.9180169354687,0
597c09c2-8314-4360-9474-4f771251da7e,BUS366,"Jischke Dr & 3rd St (SW Corner) - BUS366","Jischke Dr & 3rd St (SW Corner) BUS366",40.4272692160171,-86.9222226394548,0
da9cb2d2-eb5b-47a6-b502-11fea59b5e7f,BUS448,"Stewart Center - BUS448","Stewart Center BUS448",40.425044,-86.913678,0
22493a42-3e27-42e5-8eee-d1b81e192953,BUS190,"Armstrong Hall on Stadium Ave - BUS190","Armstrong Hall on Stadium Ave BUS190",40.4312858242563,-86.9155801484334,0
d4d64de2-a441-4778-a15c-5a43117367e9,BUS201E,"Jischke Dr & Stadium Ave (SE Corner) - BUS201E","Jischke Dr & Stadium Ave (SE Corner) BUS201E",40.4313729960545,-86.9214917374546,0
a97d9942-db4a-4b7e-aeca-9b81a0bfc429,BUS560NW,"Stone Hall on Oval Dr - BUS560NW","Stone Hall on Oval Dr BUS560NW",40.4242463662771,-86.9149605581141,0
0dfd9104-9113-492d-b480-f53c63845438,BUS362E,"RSC on Jischke Dr - BUS362E","RSC on Jischke Dr BUS362E",40.4286304371733,-86.9215547693702,0
2cd3e96c-5345-408e-8f46-db4da821d0c7,BUS567,"Ford Hall on Stadium Ave - BUS567","Ford Hall on Stadium Ave BUS567",40.4313300807077,-86.9197469603864,0
9e278dcf-a9f3-43dc-b3b8-4c425056046d,BUS557,"Physics - BUS557","Physics BUS557",40.4304100829607,-86.913209075523,0
bd4bb15d-972b-4086-b86f-b14ccd8fa8f2,BUS559,"Fire Station on Northwestern Ave - BUS559","Fire Station on Northwestern Ave BUS559",40.4261681691508,-86.9085272794084,0
353b2ea1-3e79-4589-a27d-29f6ac2f970c,BUS347,"5th & University St - BUS347","5th & University St BUS347",40.4292473452835,-86.9166651020446,0
6ebff162-444d-4464-ab66-0187f07cd2de,BUS554E,"Alpha Chi on David Ross Rd - BUS554E","Alpha Chi on David Ross Rd BUS554E",40.4343261083559,-86.9255968585966,0
0b68a40b-bf79-436f-83c1-1a69ce4c969d,BUS562N,"Theta Chi on Tower Dr - BUS562N","Theta Chi on Tower Dr BUS562N",40.433282,-86.926174,0
bf22b79e-6285-4080-a0a1-563157ba9f9b,BUS509NE,"Jischke Dr & Tower Dr (NE Corner) - BUS509NE","Jischke Dr & Tower Dr (NE Corner) BUS509NE",40.4330466945795,-86.9213965190289,0
91c85ae6-1be9-4e55-9604-8d5946d8cf38,BUS472N,"Hilltop Dr & Tower Dr (NE Corner) - BUS472N","Hilltop Dr & Tower Dr (NE Corner)  BUS472N",40.4332947989282,-86.9231238617375,0
bed1c33e-fd14-4a94-b03d-088eda0ecb57,BUS213N,"Beering Dr & Tower Dr - BUS213N","Beering Dr & Tower Dr BUS213N",40.4330064614419,-86.9191032301845,0
8941d576-c372-4d1f-884a-1dca34431740,BUS560NE,"Stone Hall on State St (NE Corner) - BUS560NE","Stone Hall on State St (NE Corner) BUS560NE",40.4242088153487,-86.9146507629544,0
d5c1b8fd-3889-4222-bbc9-1c86617044e5,BUS553,"Circle Pines on David Ross Rd (NW Corner) - BUS553","Circle Pines on David Ross Rd (NW Corner) BUS553",40.435235,-86.924962,0
c594e76e-6c2c-4946-b644-0c2e4268119e,BUS561,"Lambert Fieldhouse on University St - BUS561","Lambert Fieldhouse on University St BUS561",40.4328871031336,-86.9167053351823,0
aafd0f37-4b41-4699-97e8-b8b039a3f2a4,BUS389,"Beering Hall on University St - BUS389","Beering Hall on University St BUS389",40.425905,-86.916588,0
c3f5da97-9b4c-4251-b17c-97d4a2c081ed,BUS105,"Evergreen St & Northwestern (SE Corner) - BUS105","Evergreen St & Northwestern (SE Corner) BUS105",40.4323090870565,-86.9149323949178,0
1434da2c-bccd-43df-9100-270dcc6cc883,BUS179,"College Station Apts on US52 (at Shelter) - BUS179","College Station Apts on US52 (at Shelter) BUS179",40.4674124996312,-86.9473817615141,0
21522f1a-3082-4f26-9168-306944c8c523,BUS563,"Purdue Univ Student Health Center - BUS563","Purdue Univ Student Health Center BUS563",40.4302129405864,-86.916647667685,0
c14aa35c-81f7-474b-8af9-847006e7b473,BUS786,"St Anthony Health Care - BUS786",,40.4291132348247,-86.8823301423985,0
9b43c25b-a764-4dab-b6ed-9a25536f3fbe,BUS862,"Ball St & 15th St (NW Corner) - BUS862",,40.4332974811374,-86.8814745176717,0
6ccc5a3f-fdfd-4dd7-8886-553420676267,BUS748,"7th St & Brown St (NE Corner) - BUS748",,40.4218954099354,-86.8892971807299,0
6380072e-a1e2-44db-b3f6-4fe99f1f7bab,BUS861,"Hart St & 15th St (NW Corner) - BUS861",,40.4362532756479,-86.8815134097048,0
d8c7972b-0377-4dbf-925a-789f0664ee72,BUS842,"Village Pantry on Salem St - BUS842",,40.4257966831801,-86.8824427951838,0
26002c5c-d12c-4850-804d-41961ba8f5fd,BUS783NW,"9th St & Cincinnati St (NW Corner) - BUS783NW",,40.4228060199503,-86.8869609765387,0
daa7bcc6-79d5-4f28-8884-47798cc4cb9a,BUS410NE,"6th St & Brown St (NE Corner) - BUS410NE","6th St & Brown St (NE Corner) BUS410NE",40.4218793166804,-86.8906181687485,0
593c46fe-02d8-4251-987b-f44b0ecc11c9,BUS367NW,"Union St & 9th St (NW Corner) - BUS367NW","Union St & 9th St (NW Corner) BUS367NW",40.4247439160791,-86.8869757286892,0
e1ff6112-2f8b-4d7b-a157-734fcdcdda6e,BUS508SW,"(South of) Greenbush St & 14th St - BUS508SW","(South of) Greenbush St & 14th St BUS508SW",40.4319939274784,-86.8823556233856,0
82fa9304-7fea-473e-9711-02eb25d159cf,BUS220NW,"9th St & Brown St (NW Corner) - BUS220NW","9th St & Brown St (NW Corner) BUS220NW",40.4218980921446,-86.8869542710158,0
a8c1d33c-7bf8-4bd7-a399-7bb0d15fc3cc,BUS246,"(South of) Schuyler Ave & 24th St - BUS246","(South of) Schuyler Ave & 24th St BUS246",40.4418188596856,-86.8696352463743,0
e75a1118-9c11-40b8-8d4e-b4fd551db421,BUS860,"Barbee St & Schuyler Ave (at Shelter) - BUS860",,40.4386431240227,-86.8812653053561,0
f107e28a-f2ff-4b3c-b2d5-1428474c0ef3,BUS863,"21st St & Schuyler Ave (NE Corner) - BUS863",,40.4424880708747,-86.8726648016372,0
72385f69-5a9c-45b4-ac67-c30d9bbe8ca6,BUS787,"Howell St & 14th St (NW Corner) - BUS787",,40.4303001123846,-86.8823314835031,0
c6c616b4-9f23-49e0-b294-b8d558cf74e3,BUS859,"Star Lanes on Schuyler Ave - BUS859",,40.4397723340852,-86.8794507908494,0
2370117a-0ef9-4bc9-bc71-7dc9796bbca9,BUS843,"11th St & Salem St (NE Corner) - BUS843",,40.4257349923691,-86.8845188250851,0
868adc70-3c12-415f-a1fc-a26b4b3c3550,BUS546N,"Hartford St &14th St (NW Corner) - BUS546N","Hartford St &14th St (NW Corner) BUS546N",40.4278069989566,-86.8823274601893,0
31d2d612-69a3-4309-86a5-fed268a964ba,BUS348,"Greenbush St & 15th St (NW Corner) - BUS348","Greenbush St & 15th St (NW Corner) BUS348",40.4321749765977,-86.8814450133708,0
85967a47-3fcf-4c0e-aebd-8c1d59281401,BUS858,"18th St & Schuyler Ave (NE Corner) - BUS858",,40.4405461514322,-86.8775651977995,0
a67714b0-3363-4d1b-90c4-3e238de20400,BUS492,"4th St & Brown St (NE Corner) - BUS492","4th St & Brown St (NE Corner) BUS492",40.4218712700529,-86.8929114575929,0
bb500785-a5b9-4932-829c-57b3c46731ae,BUS227,"20th St & Schuyler Ave (NE Corner) - BUS227","20th St & Schuyler Ave (NE Corner) BUS227",40.4418443406728,-86.8744699284118,0
a83d3213-f25d-44a4-ab1d-740a5863f844,BUS562S,"Theta Chi on Tower Dr - BUS562S","Theta Chi on Tower Dr BUS562S",40.433133,-86.925902,0
f7b6dd7c-6ab9-4783-bb7f-dcdf13940657,BUS472S,"Hilltop Dr & Tower Dr (SE Corner) - BUS472S","Hilltop Dr & Tower Dr (SE Corner) BUS472S",40.4331499596327,-86.9232070102219,0
ecd96a4f-e64d-4155-9dcf-9afecf020738,BUS509SW,"Jischke Dr & Tower Dr (SW Corner) - BUS509SW","Jischke Dr & Tower Dr (SW Corner) BUS509SW",40.4328951497612,-86.9216057313446,0
b1a5ac06-9930-4c97-a70f-ca15435eb0fb,BUS554W,"Alpha Chi on David Ross Rd - BUS554W","Alpha Chi on David Ross Rd BUS554W",40.434413,-86.925697,0
2c0d9bfb-5637-4710-89c7-aff94b25344a,BUS213S,"(South of) Beering Dr & Tower Dr - BUS213S","(South of) Beering Dr & Tower Dr BUS213S",40.4328227301134,-86.9193553578469,0
a4984799-f1bd-4973-a2cf-6774c55fb1b9,BUS543SE,"Gates Rd & Nimitz Dr (SE Corner) - BUS543SE","Gates Rd & Nimitz Dr (SE Corner) BUS543SE",40.4208453250435,-86.923214,0
8b188654-9907-4675-a074-629c9bec72f3,BUS491E,"McCutcheon Hall on McCutcheon (@Shelter) - BUS491E","McCutcheon Hall on McCutcheon (at Shelter) BUS491E",40.4256505027801,-86.9289308446008,0
8a0c2bc6-4c97-4c52-9526-c6f05b8f5b01,BUS332S,"Russell St & 3rd St (SW Corner) - BUS332S","Russell St & 3rd St (SW Corner) BUS332S",40.4272651927033,-86.9192078363423,0
7e19d485-560f-4810-a5a1-86c9862741f5,BUS483N,"Marshall Dr & Nimitz Dr (NE Corner) - BUS483N","Marshall Dr & Nimitz Dr (NE Corner) BUS483N",40.4218645645299,-86.9273416356648,0
7ba4e710-5107-4bb0-b1bd-ec2b02f571a2,BUS486S,"University St & 3rd St (SW Corner) - BUS486S","University St & 3rd St (SW Corner) BUS486S",40.4272008196831,-86.9167402039015,0
5c1d0a16-3644-4729-af29-d71a067a76c7,BUS319N,"Arnold Dr & Nimitz Dr (NE Corner) - BUS319N","Arnold Dr & Nimitz Dr (NE Corner) BUS319N",40.4208895814949,-86.9246004178882,0
0e844923-2137-43b4-839b-e500ccdd05f0,BUS249,"Discovery Parking Lot - BUS249","Discovery Parking Lot BUS249",40.41951,-86.924008,0
db000418-20bd-4fae-afa0-55ec06ac603d,BUS470S,"Hillenbrand Hall on 3rd St - BUS470S","Hillenbrand Hall on 3rd St BUS470S",40.4273242013052,-86.9261292771178,0
b1cf2234-36f4-4e2a-9a3c-7a21978d56bd,BUS417NE,"Airport Rd & Nimitz Dr (NE Corner) - BUS417NE","Airport Rd & Nimitz Dr (NE Corner) BUS417NE",40.4224519683392,-86.9304047185424,0
95e21fe0-c1a5-48e2-9096-41b68c7ac3d9,BUS565N,"University Hall (North Stop) - BUS565N","University Hall (North Stop) BUS565N",40.425319249947,-86.9149042317214,0
f0401308-cd1f-4a6a-9ce0-0aba7a9bee55,BUS272N,"Halsey Dr & Nimitz Dr (NE Corner) - BUS272N","Halsey Dr & Nimitz Dr (NE Corner) BUS272N",40.4212570441518,-86.9264498011142,0
c0d84f0e-8401-40b9-bac2-6ced7614dd55,BUS107,"Jischke Dr & 3rd St (NE Corner) - BUS107","Jischke Dr & 3rd St (NE Corner) BUS107",40.427406008685,-86.9218176258694,0
6e8ee251-1f0d-4900-ad88-9ce6a2f46732,BUS491W,"McCutcheon Hall on McCutcheon - BUS491W","McCutcheon Hall on McCutcheon BUS491W",40.4256545260939,-86.9290126519807,0
f39eb52c-c2d1-4806-a617-19031339d8d4,BUS332N," (West of) Russell St & 3rd St - BUS332N"," (West of) Russell St & 3rd St BUS332N",40.4273322479327,-86.9194157075534,0
e54d8c24-2e99-48b0-a62e-fc1c73128da0,BUS470N,"Hillenbrand Hall on 3rd St - BUS470N","Hillenbrand Hall on 3rd St BUS470N",40.4274596528685,-86.9261172071765,0
3e79fb19-d00a-4c1c-8017-ce173ec3d3a9,BUS217,"Purdue Village Bldg 142 - BUS217","Purdue Village Bldg 142  BUS217",40.4198703420085,-86.9292433219697,0
931ce3f5-ebc1-46f3-b3c9-fb69fc0f5602,BUS456,"Purdue Village Bldgs149-151 - BUS456","Purdue Village Bldgs149-151 BUS456",40.4188913356597,-86.9255619898773,0
18708c00-d8f2-4a21-b677-8aaac4d2c095,BUS486N,"Lawson Hall (at Shelter) - BUS486N","Lawson Hall (at Shelter) BUS486N",40.4272490994483,-86.9167455683199,0
1ac3c078-7e36-4d63-8bba-527b820948c8,BUS417SW,"Airport Rd & Nimitz Dr (SW Corner) - BUS417SW","Airport Rd & Nimitz Dr (SW Corner) BUS417SW",40.4222521437557,-86.9306783038782,0
3d5651c0-07db-4a7b-aec6-470496210db6,BUS345,"Lilly Hall on State St - BUS345","Lilly Hall on State St BUS345",40.4240921392496,-86.9171948383567,0
9a5d81c8-4f1f-4e18-bbeb-ed1e39cb5ad5,BUS584NW,"Jischke Dr & 1st St (NW Corner) - BUS584NW","Jischke Dr & 1st St (NW Corner) BUS584NW",40.4253433898296,-86.9220818234731,0
ba6e5156-4a61-4cb0-a1b1-fe3aa736e3e0,BUS576,"Hawkins Hall on Wood St (South Side) - BUS576","Hawkins Hall on Wood St (South Side) BUS576",40.422111327774,-86.9118411488438,0
91493ebb-1abf-45ee-9e3a-54c16b370cbc,BUS313SW,"Marsteller St & State St (SW Corner) - BUS313SW","Marsteller St & State St (SW Corner) BUS313SW",40.4240411772753,-86.9138018437506,0
ce3a8922-c114-4639-a1c0-bc0e4022d5cd,BUS471,"Chauncey Ave & Wood St (SW Corner) - BUS471","Chauncey Ave & Wood St (SW Corner) BUS471",40.4220120860345,-86.9076595847404,0
0b00f2af-f835-4cee-8f56-d9dc1c984cf5,BUS163,"(East of) River Rd & Brown St - BUS163","(East of) River Rd & Brown St BUS163",40.4220254970804,-86.9033197702956,0
81a8062d-4064-4d2f-ba09-4e5f502e4d53,BUS400W,"Hilton Inn on Tapawingo Dr  (NW Corner) - BUS400W","Hilton Inn on Tapawingo Dr  (NW Corner) BUS400W",40.4203088832086,-86.8997604787207,0
2ac11e65-4ed0-42f5-b4ce-9e36d63078cf,BUS585,"St. Mary's Church/School on 11th St - BUS585","St. Mary's Church/School on 11th St BUS585",40.4175663243274,-86.8847830226888,0
33e5df4f-9b89-4f66-ab7a-7a41be15a007,BUS229SW,"Tapawingo Dr & Brown St (SW Corner) - BUS229SW","Tapawingo Dr & Brown St (SW Corner) BUS229SW",40.4218136025556,-86.8993259608344,0
75ed736c-7c41-4ff4-9ab6-7eaf5c2b7b51,BUS425S,"Wabash Landing on Brown St (@ Shelter) - BUS425S","Wabash Landing on Brown St (@ Shelter) BUS425S",40.4219758762107,-86.9008186102401,0
70d2d5fc-6875-4343-bc66-8a60fb75d328,BUS321,"(East of) Grant St & Wood St - BUS321","(East of) Grant St & Wood St BUS321",40.4220938934144,-86.9106274491922,0
d50fa143-7e73-4f44-84a5-749e351a6846,BUS185,"2nd St & Columbia St (SE Corner) - BUS185",,40.4181698213917,-86.8953723845108,0
5628ae6d-9fa7-4af5-a6bf-115cfdb4e1b3,BUS351,"Tippecanoe Co Public Library on South St - BUS351","Tippecanoe Co Public Library on South St BUS351",40.4172645757952,-86.8894339733978,0
67ada901-344a-48b4-bae0-a23d546e34af,BUS214,"2nd St & Ferry St (SE Corner) - BUS214","2nd St & Ferry St (SE Corner) - BUS214 --Downtown Transfer Center",40.4199669015388,-86.8953938421842,0
fe14fba9-eb2d-444d-8999-5cc4e4e277a0,BUS329,"5th St & South St (SW Corner) - BUS329","5th St & South St (SW Corner) BUS329",40.417261893586,-86.8920182819377,0
f2777b8f-b73c-436e-8edb-db0a547f2e7a,BUS265,"4th St & South St (SW Corner) - BUS265","4th St & South St (SW Corner) BUS265",40.4172578702723,-86.8933057423416,0
c0eab706-59b1-4eba-a3e1-c16fe48a1d97,BUS188,"2nd St & Main St (SE Corner) - BUS188",,40.4190321516414,-86.8953938421842,0
c57a64fb-06ed-4412-a8cb-2c9d92900d03,BUS219,"3rd St & Ferry St (SW Corner)-Ivy Tech RP- BUS219","3rd St & Ferry St (SW Corner)--Ivy Tech at Renaissance Place - BUS219",40.4199669015388,-86.8943786260115,0
e478bda7-7a17-474c-957e-5e845113561e,BUS501W,"State St/SR 26 & McCormick Rd - BUS501W","State St/SR 26 & McCormick Rd BUS501W",40.425552,-86.930617,0
70665b4a-0839-4b5b-888f-7dfc44c6684b,BUS154,"Young Hall on Grant St - BUS154","Young Hall on Grant St BUS154",40.423216397954,-86.9102733975812,0
1973d78e-77e4-4a7c-8245-01cd925922e5,BUS251W,"Stadium Ave & McCormick Rd (NW Corner) - BUS251W","Stadium Ave & McCormick Rd (NW Corner) BUS251W",40.4310980696141,-86.9326872785501,0
3ff1b91c-98a0-48a5-ada2-927b1c20b6ac,BUS520SW,"Jischke Dr & State St (SW Corner) - BUS520SW","Jischke Dr & State St (SW Corner) BUS520SW",40.4242155208716,-86.9217800749409,0
ccc4f532-2565-40c7-a0db-aa889fb2302b,BUS950,"Vine St & Wiggins St (SW Corner) - BUS950",,40.4266201213968,-86.908213460935,0
7b85c017-e9db-4269-a7a8-5c4baeb76368,BUS897,"(South of) Windsor Dr & Northwestern - BUS897",,40.4478927223618,-86.9232043280127,0
c4ed4f46-f3b2-408f-a000-1e11c35645b1,BUS346,"(East of) McCutcheon Dr & State St - BUS346","(East of) McCutcheon Dr & State St BUS346",40.4242423429634,-86.9285016911329,0
5e651315-c86d-4576-ab74-97fc69e619c4,BUS906W,"Schwartz Tennis Cntr on McCormick - BUS906W",,40.4358643553176,-86.9359273872332,0
57e9eddc-14c1-435b-a4a2-47e9e4a10915,BUS394,"SW Blackbird Farms Apt Buildings (W) - BUS394","SW Blackbird Farms Apt Buildings (W) BUS394",40.4428448046949,-86.9426449801114,0
83b7f3d8-53a8-491a-a7b5-b7c5c97a3344,BUS135,"Northwestern Ave & Grant St (SE Corner) - BUS135","Northwestern Ave & Grant St (SE Corner) BUS135",40.427721168263,-86.9103404528106,0
77398f48-28a4-4fe3-bc40-101b46e17bf4,BUS403,"Walmart West Lafayette (at Shelter) - BUS403","Walmart West Lafayette (at Shelter) BUS403",40.457538,-86.934027,0
4343e152-4424-4095-899f-e10c5ff783b0,BUS375W,"(West of) Lindberg Rd & Northwestern Ave - BUS375W","BUS375",40.4460446802404,-86.9220174504529,0
b7dfd4d3-248c-40d4-a2a5-5b07adb696ba,BUS300,"McCormick Place Apts Lindberg (@ Shelter) - BUS300","McCormick Place Apts Lindberg (Shelter) BUS300",40.4461023477377,-86.9435260858253,0
1c89285c-5f46-4744-a75e-e3ca39618c15,BUS205,"Kestral Blvd & Lindberg Rd (NE Corner) - BUS205","Kestral Blvd & Lindberg Rd (NE Corner) BUS205",40.4460393158221,-86.9366649947563,0
501f8523-b5ac-4894-a4d0-119f3f15b106,BUS308,"Willowbrook Apts on Lindberg (at Shelter) - BUS308","Willowbrook Apts on Lindberg (at Shelter) BUS308",40.4460983244239,-86.9401330912193,0
629b5153-a488-4002-bc7c-16a88fbd0f73,BUS236W,"Blackbird Farms@ McCormick & Kestral - BUS236W","Blackbird Farms@ McCormick & Kestral BUS236W",40.4448484149485,-86.9437218870951,0
f2bdefd8-c38e-4724-a698-0e1ac52780b5,BUS922,"Christina & Co Cumberland Ave (SE Corner) - BUS922",,40.4598701274318,-86.9340042432549,0
497f21dd-877d-430b-80eb-3d13d48ba81a,BUS402,"Littleton St & Wiggins St - BUS402","Littleton St & Wiggins St BUS402",40.4262607053673,-86.9037060084168,0
5d03971f-bf03-4251-a318-34b413ca9e82,BUS162,"Neil Armstrong & Northwestern (NW Corner) - BUS162","Neil Armstrong & Northwestern (NW Corner) BUS162",40.4518851907185,-86.9266415790702,0
7dc4ceff-8e8d-4d98-a63f-00ba02b0e5d4,BUS184,"Grissom Hall on Grant St (at Shelter) - BUS184","Grissom Hall on Grant St (at Shelter) BUS184",40.4261949912426,-86.9102921730454,0
fd86362c-b7f7-4a48-a6a2-474f7f1c8325,BUS388,"(West of) Gates Rd & State St - BUS388","(West of) Gates Rd & State St BUS388",40.4242477073817,-86.9233585550403,0
3033c487-09d8-4cc4-80a6-a78d5f4df38b,BUS161,"Yeager Rd & Northwestern Ave (NW Corner) - BUS161","Yeager Rd & Northwestern Ave (NW Corner) BUS161",40.4500451952246,-86.9249008253158,0
9ad743f7-874d-44a3-91bf-221b8ba3a8dd,BUS426,"Stadium Parking Lot on Victory Dr - BUS426","Stadium Parking Lot on Victory Dr BUS426",40.43597030258,-86.9187907528157,0
0e85d012-08fa-4da3-8e0d-8d8bb28b67a3,BUS324,"Lynn Hall on Harrison St - BUS324","Lynn Hall on Harrison St BUS324",40.4203102243131,-86.9150477299123,0
1810ffcc-6a8e-47b4-a0d6-600b6a6b5056,BUS357,"Hansen Bldg on S University St - BUS357",,40.4220026983024,-86.9160133252152,0
12366b1c-1875-4bd8-96a8-9a236b148440,BUS570,"Pao Hall on Marsteller St - BUS570","Pao Hall on Marsteller St BUS570",40.4224761082218,-86.913777703868,0
f8198877-a8e3-44c8-a828-41882a2ec821,BUS899,"Morgan & Jischke Dr (NW Corner) - BUS899",,40.423515464277,-86.9217653227905,0
9b25896d-951b-4eb8-be8f-66507f03709e,BUS900,"Discovery Learning Center - BUS900",,40.4211645079353,-86.921812261451,0
934d3b19-3167-48e9-9dae-482c5e8bfedf,BUS529,"Jischke Dr & State St  (SE Corner) - BUS529",,40.4242061331395,-86.9216687632602,0
ba449d02-3f01-4342-8812-2390b21b3fa3,BUS352,"Martin Jischke Dr & Harrison St (NE Corner)-BUS352","Martin Jischke Dr & Harrison St (NE Corner) - BUS352",40.421165,-86.921812,0
dc600e52-23c9-4255-ac18-0e34afaef1c2,BUS543NE,"Gates Rd & Nimitz Dr (NE Corner) - BUS543NE","Gates Rd & Nimitz Dr (NE Corner) BUS543NE",40.420845,-86.9232137157448,0
54eeea9e-2787-495b-a595-d5ab91c4a8f2,BUS905,"Robin Hood Ln & Lindberg Rd (NE Corner) - BUS905",,40.4459427562918,-86.9518141121754,0
9d63073f-9121-4560-b882-59c2e296a73f,BUS137,"University Plaza on Cumberland (NE Corner) -BUS137","University Plaza on Cumberland (NE Corner) BUS137",40.4595965420959,-86.9350583514606,0
8f726fb4-06b4-43d3-9e5c-b56a5602f4d9,BUS906E,"Schwartz Tennis Cntr on McCormick - BUS906E",,40.4358992240369,-86.9358160755525,0
4d8081d0-6537-4a74-a154-f0ef0c1d3673,BUS317,"Klondike Schools (SE Corner Center Drive) - BUS317","Klondike Schools (SE Corner Center Drive) BUS317",40.464838919928,-86.9619032419862,0
8940357f-a36e-47a1-b81f-0061062eb870,BUS390,"Morehouse Rd & US52 (West of Corner) - BUS390","Morehouse Rd & US52 (West of Corner) BUS390",40.4668760577962,-86.9402269685404,0
8dd21ba3-d3a4-4edf-9bce-b1fa97eff98d,BUS640,"Cherry Ln & McCormick Rd (SE Corner) - BUS640",,40.4385546111199,-86.9375916980262,0
d492a091-b750-4206-99e8-96b11ad1a410,BUS898,"First Street Towers on State St - BUS898",,40.4243254914478,-86.9233679427724,0
e26c517b-15d5-45e8-9d97-56b57f240458,BUS236E,"Blackbird Farms@ McCormick & Kestral - BUS236E","Blackbird Farms@ McCormick & Kestral BUS236E",40.4448846247724,-86.9436494674474,0
4d48d199-81a9-4310-a7fe-0a212bcbd723,BUS127,"(East of) McCormick & US 52 - BUS127","(East of) McCormick & US 52 BUS127",40.4673521499248,-86.9523103208727,0
8b65c159-fbe3-4a64-8d12-8e1681508c47,BUS250,"(South of) Geddes Way/Cook Medical on US 52-BUS250","(South of) Geddes Way/Cook Medical on US 52 BUS250",40.4637901761407,-86.9361325762351,0
4639f159-275e-4ca8-8602-9b04697bbb6a,BUS204,"Lafayette Blind on Klondike Rd - BUS204","Lafayette Blind on Klondike Rd BUS204",40.460242954507,-86.9619770027385,0
a50bccf6-ec75-41da-bacb-dcd4a878cc60,BUS139,"(North of) University Place on Lindberg Rd -BUS139","(North of) University Place on Lindberg Rd BUS139",40.4469955233929,-86.9368956647453,0
370e76f4-2ae1-4022-8596-f5b3d88560f7,BUS517,"McCutcheon Hall on State St - BUS517","McCutcheon Hall on State St BUS517",40.4243120804019,-86.9273537056061,0
9de22820-ba46-4ab1-a586-e70901eef609,BUS195,"Klondike Rd & Lindberg Rd (NE Corner) - BUS195","Klondike Rd & Lindberg Rd (NE Corner) BUS195",40.4458301035064,-86.9617892480963,0
c7638597-f9b9-4470-8c3b-d83e5e9e2ce9,BUS904,"Longspur Dr & Lindberg Rd (NE Corner) - BUS904",,40.4459373918734,-86.9566005144477,0
dca494c8-4812-48bc-a82f-80a56f5f4b13,BUS393,"SW Blackbird Farms Apt Buildings (E) - BUS393","SW Blackbird Farms Apt Buildings (E) BUS393",40.442921,-86.942472,0
7c2b57cc-a587-412f-be46-4c58fad936c5,BUS501E,"Purdue West on McCormick Rd - BUS501E","Purdue West on McCormick Rd BUS501E",40.4255432144131,-86.9304851848176,0
19368e90-04b0-44a4-bb4c-d48acd53a572,BUS221,"(East of) Bethel Dr & US 52 - BUS221","(East of) Bethel Dr & US 52 BUS221",40.4673789720165,-86.9548651251117,0
ba74a5a0-af3d-4feb-9e77-3d55a2c9f23e,BUS498,"Wake Robin Dr & Lindberg Rd (NE Corner) - BUS498","Wake Robin Dr & Lindberg Rd (NE Corner) BUS498",40.4459347096643,-86.9542053016547,0
bcccd469-d19e-486f-930f-bee15f63da72,BUS566,"Purdue West on State St - BUS566","Purdue West on State St BUS566",40.4242946460423,-86.9297864693276,0
18a3bd98-4fe5-4e0f-83e2-933773eb5ea5,BUS283,"Hunter Rd & US 52 (SW Corner) - BUS283","Hunter Rd & US 52 (SW Corner) BUS283",40.4673749487027,-86.9494028061272,0
0e5f1d02-f5ac-4498-929e-02347548bb9c,BUS170,"(East of) Wyndham & US 52 - BUS170","(East of) Wyndham & US 52 BUS170",40.4673293511468,-86.9584378277324,0
c581543c-991f-4d18-8412-44cc8dcf7a43,BUS174,"Klondike Storage on Klondike Rd - BUS174","Klondike Storage on Klondike Rd BUS174",40.44835,-86.961917,0
e29c6709-bf72-477b-979c-d3330376e7d3,BUS251E,"(North of) McCormick Rd & Stadium Ave - BUS251E","(North of) McCormick Rd & Stadium Ave BUS251E",40.4312670487921,-86.9326631386675,0
40592923-1788-4e70-a9f8-5e1844f485bc,BUS342,"US 52 & Klondike Rd (SE Corner) - BUS342","US 52 & Klondike Rd (SE Corner) BUS342",40.4672515670807,-86.962037352445,0
98544637-94df-4a5e-81d4-fcb10c663267,BUS481,"Point West on Klondike Rd (NE Corner) - BUS481","Point West on Klondike Rd (NE Corner) BUS481",40.4565374825321,-86.9619099475092,0
644ec9d8-43fa-4473-a18d-49ea4590a896,BUS464,"Pemberly Cts on Klondike Rd - BUS464","Pemberly Cts on Klondike Rd BUS464",40.4586980020224,-86.9619582272743,0
ac19b552-e31c-40e2-af42-5cea4dd60910,BUS268,"Copper Beech Apts Klondike (SE Corner) - BUS268","Copper Beech Apts Klondike (SE Corner) BUS268",40.4543166133354,-86.9618965364633,0
efa4327d-e215-418c-9af0-4ee017a63be7,BUS143,"CityBus Offices - BUS143","CityBus Offices BUS143",40.429116,-86.891767,0
e0580484-4074-4d5e-be40-67fd304209b7,BUS422E,"(Southwest of) 9th St & Canal Rd - BUS422E","(Southwest of) 9th St & Canal Rd BUS422E",40.4340712984843,-86.8874504797131,0
abe86633-3ab7-49a8-bb3a-94a35a878e90,BUS152,"River Walk Apartments on 9th St - BUS152","River Walk Apartments on 9th St BUS152",40.4354445895817,-86.8864996365607,0
f5e1bcdb-05d1-4eb3-8989-add71cbc41d2,BUS565S,"University Hall (South Stop) - BUS565S","University Hall (South Stop) BUS565S",40.4251314953048,-86.9148988673031,0
a1c685e4-44c2-4d4d-b5c6-8dc026fdcf75,BUS360,"Harrison Bridge Ramp at Canal Rd - BUS360","Harrison Bridge Ramp at Canal Rd BUS360",40.4247828081121,-86.8940125044592,0
1b3b4ccd-e56a-4830-b0ce-9abb5501e985,BUS415,"Purdue Airport Main Terminal - BUS415","Purdue Airport Main Terminal BUS415",40.4166355977437,-86.9316211004031,0
853a83cd-9fd2-4a23-a06e-f9a3702a94bc,BUS146,"Aviation Technology Bldg - BUS146","Aviation Technology Bldg BUS146",40.4166516909988,-86.9296013968945,0
098bf367-d26b-44ec-94df-0ef0e7b7dbea,BUS178,"Hatke Dr and St. Francis Way (SW Corner) - BUS178",,40.3922744329139,-86.8329211671902,0
0b80550d-0e15-448e-8f09-71c6c8a51c14,BUS941NW,"Bonlou & Creasy Ln (Menards Entrance) - BUS941NW",,40.3872117630966,-86.8402167761455,0
ef498606-c89d-464b-b8ed-5d71562e495e,BUS711N,"Imperial Pkwy & Brady Ln (NE Corner) - BUS711N",,40.3820190061342,-86.848964801369,0
76ee2c73-8262-4e29-be57-7c2e4e62d2a2,BUS714,"Brampton Apts on Windemere (NW Corner) - BUS714",,40.3891965978859,-86.8364791176605,0
2c355f8d-11eb-4f66-8b9f-5707fcc45d43,BUS373,"Tippecanoe Mall Entrance E - BUS373","Tippecanoe Mall Entrance E BUS373",40.391557,-86.849444,0
bea58c77-99d1-4434-ace0-be662526814e,BUS301N,"Pheasant Run Apts (at Shelter) - BUS301N","Pheasant Run Apts (at Shelter) BUS301N",40.3819278110223,-86.8612359083435,0
212311de-a6d1-4c5e-bf45-310d75930367,BUS437W,"Pay Less off SR25/38 (East of Shelter) - BUS437W","Pay Less off SR25/38 (East of Shelter) BUS437W",40.391134,-86.84458,0
5eb93d6e-1b6f-404d-be79-472e5f9412ab,BUS404NE,"US 52 & Creasy Ln (NE Corner) - BUS404NE","US 52 & Creasy Ln (NE Corner) BUS404NE",40.3834030260684,-86.8432490136176,0
76e7253b-af35-4236-a0f3-45922ef55b50,BUS772,"Village Pantry on Creasy Ln - BUS772",,40.3895573550199,-86.8383875094883,0
d8025774-dd8f-4a6e-bbeb-9d41cb9b32d6,BUS237,"Pay Less on Old US 231 S (at Shelter) - BUS237","Pay Less on Old US 231 S (at Shelter) BUS237",40.385567,-86.904553,0
6fd1e4fd-fb85-4e2a-abfc-424dd4d780b4,BUS142,"Ivy Tech at Ivy Hall (Roundabout) - BUS142","Ivy Tech at Ivy Hall (Roundabout) BUS142",40.3840936949309,-86.8407988155364,0
ec642df9-fcac-41d3-892a-ae3806dab2ca,BUS183,"Bayley Dr at Crosswinds Apts (West side) - BUS183",,40.3904679650347,-86.8341455956784,0
569c1901-c638-4600-a23e-e366dfbe7b78,BUS340N,"9th St & Twyckenham Blvd (NW Corner) - BUS340N","9th St & Twyckenham Blvd (NW Corner) BUS340N",40.3819519509048,-86.8857888511293,0
95d615ad-1dc4-4553-bbb6-2f9664451cd6,BUS716NE,"SR 25/38 & Haggerty Ln (NE Corner) - BUS716NE",,40.3866552046928,-86.8337218066288,0
b2b03415-4c1d-4380-93f0-6a27bacf8195,BUS706,"(West of) Hanover Dr & Brady Ln - BUS706",,40.3817360330663,-86.873835585942,0
3f1b0ef4-189e-4a47-bbe6-6bc673f22a34,BUS676,"Sears at Tippecanoe Mall - BUS676",,40.391782,-86.848476,0
9a5898ec-2189-4be0-b7e4-34e618bc6151,BUS180,"St. Elizabeth on St. Francis Way (South) - BUS180","St. Elizabeth on St. Francis Way (South Side) - BUS180",40.3922985727965,-86.8343065282289,0
05803c24-9c6d-45fe-b10d-57680446a741,BUS703N,"(West of) Poland Hill & Twyckenham - BUS703N",,40.3836108972794,-86.895368361197,0
d9ac6f09-48d3-4529-906c-78decadfa69f,BUS710N,"Village Pantry on Brady Ln - BUS710N",,40.3819559742186,-86.8586703752679,0
39ad5a85-64f1-43a6-834c-21fb05137161,BUS354W,"(West of) Brady Ln & 18th St - BUS354W","(West of) Brady Ln & 18th St BUS354W",40.3817843128314,-86.8764601276195,0
a36e49fa-b4c5-4d55-8113-d31b99db36df,BUS704N,"Rampart St & Twyckenham (NE Corner) - BUS704N",,40.3836095561749,-86.8922234709396,0
a71b8230-9adf-4f9c-8550-16727df98538,BUS707N,"Pipers Glen Dr & Brady Ln (NE Corner) - BUS707N",,40.3818124760278,-86.8723000211894,0
dfaa5c24-bbba-45a3-9749-c69ce2b02abd,BUS720,"Portsmouth Dr W & Brady Ln (NE Corner) - BUS720",,40.3818647791067,-86.8660410860801,0
042da800-4514-43ac-978d-87934ab0dc63,BUS715,"Briarwood Apts on Windemere (NW Corner) - BUS715",,40.3904867404989,-86.8361545703503,0
b7d1dc98-453f-4449-89ef-b8a1e026f1d1,BUS705N,"(East of) Dover Ln & Twyckenham Blvd - BUS705N",,40.3823140491435,-86.8873056404177,0
e0685a02-6d84-429f-82d4-0f870f8de9d0,BUS713S,"Bayley Dr & Windemere Dr (SW Corner) - BUS713S",,40.388342,-86.834049,0
a8bf3990-6317-4dda-883f-4d3637d1ddb7,BUS177,"Windemere Dr & Bayley Dr (NW Corner) - BUS177",,40.388342,-86.834049,0
bc89353d-235b-4070-93f5-f1b30c0c45e8,BUS449N,"(East of) Commanche Tr & Brady Ln - BUS449N","(East of) Commanche Tr & Brady Ln BUS449N",40.3818124760278,-86.8692597370899,0
175e6f57-620a-4f87-a9bb-946859d2b6ef,BUS901,"Hillcrest Rd & Northwestern (SE Corner) - BUS901",,40.4403731489404,-86.9181657980779,0
0cdf2425-c643-43df-9f74-fa32c596c74c,BUS118SE,"Roxboro St & Yeager Rd (SE Corner) - BUS118SE","Roxboro St & Yeager Rd (SE Corner) BUS118SE",40.4649435260858,-86.924497152835,0
a2e8e56e-7c31-4d55-8714-83f43adae759,BUS110SE,"Shining Armor Ln & Mason Dixon(SE Corner)-BUS110SE","Shining Armor Ln & Mason Dixon(SE Corner) BUS110SE",40.479334919413,-86.934566166077,0
3e393503-8f73-4f13-915a-9a9d007faef8,BUS631E,"Abnaki Dr & Morehouse Rd - BUS631E","Abnaki Dr & Morehouse Rd BUS631E",40.4744479342966,-86.938885863953,0
5a1d7dc8-251f-4e5d-86f4-4bb0daa44317,BUS112SE,"(East of) Morehouse Rd on Mason Dixon Dr -BUS112SE","(East of) Morehouse Rd on Mason Dixon Dr BUS112SE",40.4777322994311,-86.9388335608741,0
808c3a05-b9c0-452c-805d-029ca1406aaf,BUS114E,"Country Squire Apts on Morehouse - BUS114E","Country Squire Apts on Morehouse BUS114E",40.4691773932682,-86.9387061559383,0
3305715e-cf48-4d65-9378-6fb11a59627c,BUS320,"Grant St & Wood St (SE Corner) - BUS320","Grant St & Wood St (SE Corner) BUS320",40.4220845056823,-86.9102854675225,0
2b85448b-d739-4128-a824-846bea7c9eb6,BUS489,"Wood St & River Rd (SW Corner) - BUS489","Wood St & River Rd (SW Corner) BUS489",40.4206347716233,-86.9053475204317,0
b7f4efe5-dc6a-4aff-aeab-0f84f39c891c,BUS102NE,"(North of) Carlisle Rd & Lindberg Rd - BUS102NE","(North of) Carlisle Rd & Lindberg Rd BUS102NE",40.4459695783835,-86.919195766401,0
997435d6-151b-451a-96d8-c1af0ac59c3a,BUS623SE,"Windsor Dr & Carlisle Rd (SE Corner) - BUS623SE","Windsor Dr & Carlisle Rd (SE Corner) BUS623SE",40.4478900401527,-86.9194760572598,0
277e64c0-dce0-4e3b-9aaa-90a487fdd4b7,BUS126,"(Southeast of) Northwestern & Lindberg Rd - BUS126","(Southeast of) Northwestern & Lindberg Rd BUS126",40.4452319708605,-86.9210143042215,0
90d297b8-e2cf-49be-aa44-ce9ccac59df1,BUS113NE,"Ellison Dr & Morehouse Rd - BUS113NE","Ellison Dr & Morehouse Rd BUS113NE",40.4708001298189,-86.93884697192,0
2bbb0f2b-3478-47a0-89be-6107c4586f45,BUS944N,"West View Apts on Kalberer Rd (North) - BUS944N",,40.4678885917597,-86.9340377708696,0
22e89564-5c22-4567-95b5-0de7484b87ac,BUS203,"Northridge Dr & Northwestern (SE Corner) - BUS203","Northridge Dr & Northwestern (SE Corner) BUS203",40.4367950819013,-86.9154983410536,0
74b635b2-7bdf-4bed-83ba-1509c1794769,BUS627,"Vicksburg Ln & Mason Dixon Dr (SW Corner) - BUS627","Vicksburg Ln & Mason Dixon Dr (SW Corner) BUS627",40.4777349816403,-86.9362586400663,0
eabe0268-c37c-49c4-8c4c-edb1aa1abae6,BUS522,"(West of) Salisbury St & Williams St - BUS522","(West of) Salisbury St & Williams St BUS522",40.4184916864927,-86.9080310707111,0
928f7bc1-0a8a-422d-929d-53908b045347,BUS632SE,"Garden St & Northwestern Ave (SE Corner) -BUS632SE","Garden St & Northwestern Ave (SE Corner) BUS632SE",40.4426905776674,-86.9193245124414,0
0d1d332e-42cc-4f2f-a137-f6efb4a52c01,BUS100E,"Beau Jardin Apts on Yeager (SE Corner) - BUS100E","Beau Jardin Apts on Yeager Rd (SE Corner) BUS100E",40.4544574293171,-86.9244891062074,0
f82d3326-1e16-478e-b379-6ec1936ed63e,BUS104N,"Yeager Rd & Anthrop Dr (NE Corner) - BUS104N","Yeager Rd & Anthrop Dr (NE Corner) BUS104N",40.4520260067002,-86.924451555279,0
895470d3-70f3-4d63-9442-7b903977bd04,BUS290,"Grant St & Williams St (NE Corner) - BUS290","Grant St & Williams St (NE Corner) BUS290",40.418565447245,-86.9101768380509,0
a0b29e60-5f53-4c4a-bfd2-b9d41c431d83,BUS101NE,"Mayfair Village Apts on Sycamore Ln - BUS101NE","Mayfair Village Apts on Sycamore Ln BUS101NE",40.4521225662305,-86.9216633988418,0
06e85e7b-195f-46cd-b6c1-e3514b967cf9,BUS624E,"Sycamore Ln & Carlisle Rd (SE Corner) - BUS624E","Sycamore Ln & Carlisle Rd (SE Corner) BUS624E",40.4503563314889,-86.9193593811607,0
1abef5c8-2ea7-404d-83cf-94dd8e34666f,BUS628,"Roundtable Dr & Mason Dixon Dr (SE Corner) -BUS628","Roundtable Dr & Mason Dixon Dr (SE Corner) BUS628",40.4808329332371,-86.9345540961357,0
aed29f19-944c-4399-9f12-5242ed0b17f2,BUS115N,"(East of) Morehouse Rd & Kalberer Rd - BUS115N","(East of) Morehouse Rd & Kalberer Rd BUS115N",40.4677880089157,-86.938840266397,0
b29399d8-483a-4b20-b131-c66eb599cb62,BUS294,"(South of) Grant St & Harrison St - BUS294","(South of) Grant St & Harrison St BUS294",40.4202378046654,-86.9102076834564,0
f3403054-0f51-4acd-a9cc-cfea065abc88,BUS284SE,"Meridian St & Northwestern (SE Corner) - BUS284SE","Meridian St & Northwestern (SE Corner) BUS284SE",40.4339894911045,-86.9151268550829,0
ea1360ef-518b-4b44-9900-634f62dbc84b,BUS119,"Country Villa Apts on Yeager (SE Corner) - BUS119","Country Villa Apts on Yeager Rd (SE Corner) BUS119",40.4619367696009,-86.9245306804496,0
dfd2e55b-d4b7-42a4-8a76-a88304c87641,BUS117SE,"(South of) Kalberer Rd & Yeager Rd - BUS117SE","(South of) Kalberer Rd & Yeager Rd BUS117SE",40.4677719156606,-86.9245025172533,0
bc0c885e-681e-4042-8ef1-56b01f8ed8a2,BUS186,"River Rd & Williams St (NW Corner) - BUS186","River Rd & Williams St (NW Corner) BUS186",40.4184822987606,-86.9066094998485,0
9f330f31-604a-4700-bdc0-a01a4b3a7f53,BUS945NE,"Kent Ave & Kalberer Rd (NE Corner) - BUS945NE",,40.4678899328643,-86.9316975433646,0
33e91b2a-546e-4c37-a280-b3c8b19ef3fb,BUS218SE,"Yeager Rd & Cumberland Ave (SE Corner) - BUS218SE","Yeager Rd & Cumberland Ave (SE Corner) BUS218SE",40.460503128797,-86.9244770362662,0
65ac3dae-c463-400f-a62b-c0d3afadbfa8,BUS626SE,"Montgomery St & Yeager Rd (SE Corner) - BUS626SE","Montgomery St & Yeager Rd (SE Corner) BUS626SE",40.4585866903416,-86.924490447312,0
c44d5de2-a267-4ed7-a1b2-225a75cea81c,BUS157,"Shining Armor Ln & Roundtable Dr(SW Corner)-BUS157","Shining Armor Ln & Roundtable Dr(SW Corner) BUS157",40.4808450031784,-86.9311771947847,0
3ace3f8c-1210-43ac-8f45-b3bf1ae8209c,BUS375SE,"(East of) Northwestern & Lindberg - BUS375SE","(East of) Northwestern & Lindberg BUS375SE",40.4459306863505,-86.9210692895096,0
440ea829-bd7f-46fd-a463-79a4f60f9b8a,BUS775SW,"Stinger St & Harper Dr (SW Corner) - BUS775SW",,40.4062071684722,-86.8380803965378,0
087ccb30-6b54-4f79-ba83-3bba9ea5e21f,BUS763W,"(South of) Fortune Dr & Creasy Ln - BUS763W",,40.4111370689355,-86.8389065169636,0
c1b17ef1-a55e-4d08-97bd-72eba0e97a49,BUS766W,"McCarty Ln & Sickle Ct (NW Corner) - BUS766W",,40.4030502082736,-86.8343977233409,0
fd2d89cf-1091-4c71-98eb-b2c8d10499cc,BUS499,"(West of) SR 25/38 & Creasy Ln - BUS499",,40.3896498912364,-86.8400410914446,0
4d261b32-4089-4cab-84c4-ac477935bb0f,BUS672,"Wendy's at Tippecanoe Mall - BUS672",,40.393497,-86.848908,0
59213aa5-8e77-4791-864f-f4bf7852d4a5,BUS673,"Dicks at Tippecanoe Mall - BUS673",,40.392557,-86.849441,0
ff70510e-4315-4929-bb47-1fde23fa7eb5,BUS757NW,"S Navarre Dr & Shenandoah Dr (NW Corner) -BUS757NW",,40.4266107336647,-86.8472629396476,0
8b40d5b3-e18d-4cf5-911e-00f9db196e64,BUS771,"Starbucks Coffee on Creasy Ln - BUS771",,40.4152609655416,-86.8390285574811,0
fe133257-785b-4a07-ad27-fac1520da967,BUS756W,"(South of) Redondo Dr & Shenandoah Dr - BUS756W",,40.4280738787695,-86.8452486005574,0
334f0392-db49-4bd0-b338-7472d6ce019c,BUS225SE,"Rome Dr & Shenandoah Dr (SE @ Shelter) - BUS225SE","Rome Dr & Shenandoah Dr (SE @ Shelter) BUS225SE",40.4205020022692,-86.8457689491373,0
c838fb1d-ccb2-4ad1-9139-58014e10c136,BUS341NW,"Union St & Shenandoah Dr (NW Corner) - BUS341NW","Union St & Shenandoah Dr (NW Corner) BUS341NW",40.4250081136828,-86.8472414819742,0
f364b36e-7fe3-4dd3-b80d-bfb1f70702a4,BUS526SW,"Chauncey Court & Greenbush St (SW Corner)-BUS526SW","Chauncey Court & Greenbush St (SW Corner) BUS526SW",40.4321119446821,-86.8476920931156,0
876f3f2b-6ccc-422e-863d-ab14915aa0c8,BUS192,"(North of) Creasy Ln & SR 26 (West Side) - BUS192","(North of) Creasy Ln & SR 26 (West Side) BUS192",40.4179378102981,-86.8391090237563,0
9a112dce-0829-4f7d-9b7e-aef2f8678760,BUS380SE,"Salem St & 9th St (SE Corner) - BUS380SE","Salem St & 9th St (SE Corner) BUS380SE",40.4256585494076,-86.8868845335772,0
ae335851-571e-4bcd-9762-4fb8f51fcce6,BUS920NW,"Claremont Ln & Shenandoah Dr(NW Corner) - BUS920NW","Claremont Ln & Shenandoah Dr (NW Corner) - BUS920NW",40.4231466605155,-86.8471864966861,0
85b79d67-3667-4800-8c02-c946328649cb,BUS453,"(East of) 28th St & Greenbush St - BUS453","(East of) 28th St & Greenbush St BUS453",40.4320717115445,-86.8635627248027,0
8fc19903-9113-4ae3-9846-7d6f35796fba,BUS376,"Cambridge Estates on SR 25/38 - BUS376",,40.3928806121874,-86.8464126793392,0
470c8ef3-7a59-4058-b57e-d72f9e10a49a,BUS753,"RRX on Greenbush St (SW Corner) - BUS753",,40.4320730526491,-86.8568853650621,0
3135ae2d-2f18-452b-90a4-26211be1e36d,BUS468,"Creasy Ln & Rome Dr (SW Corner) - BUS468","Creasy Ln & Rome Dr (SW Corner) BUS468",40.4207943630692,-86.839142551371,0
78c0f26c-0855-4426-96c0-84752d287324,BUS770NW,"Creasy Ct & Creasy Ln (NW Corner) - BUS770NW",,40.3963862595788,-86.8385108911104,0
80d22eca-8d5d-4594-b3da-8dfcfce04d0d,BUS744,"5th St & Brown St (SW Corner) - BUS744",,40.4217948270914,-86.8919928009506,0
fac1ad4d-1fdb-42a0-b968-75b9fe04cedb,BUS245SE,"Market Square (EAST) on Greenbush St - BUS245SE","Market Square (EAST) on Greenbush St BUS245SE",40.4320730526491,-86.8691376965724,0
44b8b404-07b5-4e27-b8d7-f333881d7ee7,BUS508W,"14th St & Greenbush St (SW Corner) - BUS508W","14th St & Greenbush St (SW Corner) BUS508W",40.4320462305573,-86.8823703755361,0
7425cd91-cf52-428a-8c47-42d3e11df040,BUS760S,"Executive Dr & Rome Dr (SE Corner) - BUS760S",,40.4205180955242,-86.8435668554048,0
1e62d90d-0f43-4a72-a1ff-ea1b3bda5e54,BUS230S,"Greenbush Crossing Apartments - BUS230S","Greenbush Crossing Apartments BUS230S",40.4320596416032,-86.8741923197622,0
c9531023-2ded-4da6-a85d-c90f069c267f,BUS499N,"(North of) SR 25/38 & Creasy Ln - BUS499N",,40.3895935648438,-86.8386181794774,0
b9903213-c227-4a0f-a112-468d807ffc21,BUS774N,"Emerald Pines & McCarty Ln (NE Corner) - BUS774N",,40.403042161646,-86.8365676305632,0
a7495643-1561-40bc-8e32-468b0acb09df,BUS513,"Shenandoah Dr & Greenbush St (SW Corner) - BUS513","Shenandoah Dr & Greenbush St (SW Corner) BUS513",40.4320784170674,-86.8450179305683,0
07609e18-3147-4212-ab7e-f801fe0a241d,BUS200S,"Julia Ln & Harper (SW Corner) - BUS200S","Julia Ln & Harper (SW Corner) BUS200S",40.4063117746301,-86.8344728251978,0
4459010b-b7b2-4735-aed9-774ead55f622,BUS919W,"St Francis Way & Creasy Ln (NW Corner)-BUS919W","St Elizabeth Hospital on Creasy(NW Corner)-BUS919W",40.3924568231378,-86.8384800457048,0
001e24a4-db41-47a2-bdb9-d3a662898225,BUS759W,"S Driftwood & Shenandoah Dr (SW Corner) - BUS759W",,40.4214541865262,-86.8464998511374,0
9bfbafd8-a1b0-4fd4-8a47-542960e21abd,BUS769NW,"Amelia Ave & Creasy Ln (NW Corner) - BUS769NW",,40.3983389078581,-86.8385538064572,0
fe4a615c-d10b-4cfe-bac4-79fcb6809bbd,BUS768,"Creasy Ln (Across from Burberry Dr) - BUS768",,40.4008856654695,-86.8386074506407,0
d0387e09-ae23-4ca8-b4ed-6bcda1ec6915,BUS765NW,"Sickle Ct & Julia Ln (NW Corner) - BUS765NW",,40.404807055283,-86.8353968462584,0
54d4d361-5e4f-4871-a067-d2fdc0cecb5c,BUS779NW,"Kimberly Dr & Shenandoah Dr (NW Corner) - BUS779NW",,40.4307359713755,-86.8450179305683,0
172fcebd-4542-4f37-ada8-aacc4fa137e2,BUS245SW,"Market Square (WEST) on Greenbush St - BUS245SW","Market Square (WEST) on Greenbush St BUS245SW",40.4320770759628,-86.8717005474389,0
2f06051a-8d03-4cf3-8c5e-5ebdf1bca39d,BUS292SE,"Hartford St & 9th St (SE Corner) - BUS292SE","Hartford St & 9th St (SE Corner) BUS292SE",40.4276514308245,-86.8869649998525,0
63f97290-3394-4bc7-99c4-3fc3de355de9,BUS330SW,"18th St & Greenbush St (SW Corner) - BUS330SW","18th St & Greenbush St (SW Corner) BUS330SW",40.4320475716619,-86.8775973843096,0
eb0e520b-5194-46b6-9dbd-d60278439e10,BUS745,"Cincinnati St & 6th St (SE Corner) - BUS745",,40.4226598395502,-86.8906315797944,0
45b19c01-1cbd-42ab-8e10-d2e9f6734bb1,BUS746,"Tippecanoe Co. Health Dept. on 6th St - BUS746",,40.4233344151577,-86.8906288975852,0
04aa0081-5748-475d-82d0-3b298938e9db,BUS278SW,"Elmwood Ave &  Greenbush St (SW Corner) - BUS278SW","Elmwood Ave &  Greenbush St (SW Corner) BUS278SW",40.4320851225904,-86.8661725143297,0
a5ba9fa5-a7c7-4473-a91a-50d390cb3fd8,BUS921,"Linnwood Park - BUS921",,40.4320448894527,-86.8798772621082,0
8a0e92c7-e56d-4af2-91b3-cdf9177ebe3b,BUS512,"Greenbush St & 9th St (SE Corner) - BUS512","Greenbush St & 9th St (SE Corner) BUS512",40.4321132857867,-86.8871272735075,0
e519ec16-34f3-4545-ac95-49aaa70cf6f7,BUS717,"Guaranteed Transmission on SR 25/38 - BUS717",,40.391039275589,-86.8429284896212,0
83e08fc3-0b83-4dee-b709-32bd73cd94da,BUS987SE,"9th St & Roberts St (SE Corner) - BUS987SE",,40.4297100263661,-86.8870105974084,0
f5d0f410-006a-43c4-a073-9d57c77dfb6c,BUS231S,"US 52 & Greenbush St (SW Corner) - BUS231S","US 52 & Greenbush St (SW Corner) BUS231S",40.4320395250344,-86.8585174893449,0
efec1a2c-c1c3-4771-a9c4-440eb4c8f2f2,BUS410SW,"6th St & Brown St (SW Corner) - BUS410SW","6th St & Brown St (SW Corner) BUS410SW",40.421812261451,-86.8907267982201,0
d0245fc9-778e-4ef7-a1fa-0ed9ddd11e3f,BUS328,"Union St & 6th St (SE Corner) - BUS328","Union St & 6th St (SE Corner) BUS328",40.4246527209671,-86.8906651074091,0
e0d5c084-5713-4ed0-adfb-7331518b0b0d,BUS120,"Lafayette 7 Theater in Laf Marketplace - BUS120","Lafayette 7 Theater in Laf Marketplace BUS120",40.401898,-86.851619,0
6097020b-cb59-4a51-a542-1651f8b5e057,BUS444SW,"Jackson St & Main St (SW Corner) - BUS444SW","Jackson St & Main St (SW Corner) BUS444SW",40.4153079042022,-86.8764091656452,0
5c918610-2378-42ef-9bb1-3fd1bf5dc6fc,BUS391NW,"Alabama St & Main St (NW Corner) - BUS391NW","Alabama St & Main St (NW Corner) BUS391NW",40.4164760062978,-86.8777328358729,0
98f86745-a719-4a54-8547-f3a391c997a1,BUS298,"(East of) US 52 & McCarty Ln - BUS298","(East of) US 52 & McCarty Ln BUS298",40.4027725996239,-86.8560847256234,0
fb86f191-d221-4e99-a099-6873c7205073,BUS141,"SR 25/38 @ Shoe Carnival - BUS141",,40.397188,-86.852844,0
00ed30df-195b-46ad-a0e0-e7a243284dad,BUS661,"(West of) McGrath Ave & South St - BUS661",,40.4173128555603,-86.8837141623327,0
86981472-d8d4-43c7-9c90-118e015f0600,BUS482NW,"Scott St & Main St (NW) - BUS482NW","Scott St & Main St (NW) BUS482NW",40.4138300069469,-86.874748878166,0
416520fb-f950-4787-a723-875041e34c8f,BUS578,"3rd St & South St (SW Corner) - BUS578","3rd St & South St (SW Corner) BUS578",40.4172323892851,-86.8943813082207,0
3c267f7a-2673-4456-bdf2-91c6b5944a35,BUS948,"Professional Ct & SR 25/38 (SW Corner) - BUS948",,40.3949244555786,-86.8495843916884,0
1ffe554d-480e-4225-8a65-c123524dc6d7,BUS421SW,"Kingsway Dr & SR 25/38 (SW Corner) - BUS421SW","(North of) Kingsway Dr & SR 25/38 - BUS421",40.3942163523565,-86.8484551816258,0
e87892ae-c649-4eb1-9659-9c1a1f13ec5e,BUS206,"14th St & South St (SW Corner) - BUS206","14th St & South St (SW Corner) BUS206",40.4173343132337,-86.8818580735837,0
3813b0cd-fd58-4e20-97b8-2e19d1fe7eb7,BUS668,"Kmart in Lafayette Marketplace - BUS668",,40.399664,-86.851861,0
44d63f24-ea6c-4be6-b226-86ed232b0b22,BUS663SE,"(Southeast) 25th St & Main St - BUS663SE",,40.4075455908504,-86.8672963599739,0
218e7b6d-a502-4503-8b46-77acc97c341f,BUS216W,"(West of) 24th St & Main St - BUS216W","(West of) 24th St & Main St BUS216W",40.4095907753462,-86.870029531123,0
c97288d2-518f-46bf-807f-a2d59e8f231c,BUS947,"(North of) Main St & Congress St - BUS947",,40.4114777095006,-86.8721793217766,0
50eaff00-edb2-491d-921a-9713439304c7,BUS664SE,"(Southeast of) 28th St & Main St - BUS664SE",,40.4059255365089,-86.8650580564176,0
ed36fd6f-211c-4f68-8eb0-a5e6923cc37d,BUS939,"16th St & South St (SW Corner) - BUS939",,40.4171680162649,-86.8785643207171,0
472f46da-6640-487d-9e6d-97e91232c5ea,BUS667,"PetSmart in Lafayette Marketplace - BUS667",,40.400299,-86.852841,0
a7a9e8d2-ae3c-456a-9c2d-83047e099518,BUS666,"(West of) US 52 & McCarty Ln - BUS666",,40.4027632118919,-86.8588675176422,0
099d5878-95ee-4ae8-8814-a9ea395ce9c3,BUS659,"(West of) 10th St & South St - BUS659",,40.4172873745732,-86.886183135878,0
83a9a477-b9ba-4d9d-b7d2-92d8243a05e5,BUS531SW,"Earl Ave & Main St (SW Corner) - BUS531SW","Earl Ave & Main St (SW Corner) BUS531SW",40.4048379006885,-86.8635157861421,0
b8aeb844-5fb9-4192-8b9c-095486c2cd48,BUS241,"(East of) 9th St & Logan Ave - BUS241","(East of) 9th St & Logan Ave BUS241",40.4026612879432,-86.8857727578743,0
007b3653-91cb-4825-833a-8f1c98929ec7,BUS243N,"7th St & Columbia St (NE Corner) - BUS243N","7th St & Columbia St (NE Corner) BUS243N",40.4182569931899,-86.8886199229133,0
d7ff3ff8-b0b9-439c-a1b7-b1dec7535f18,BUS881,"(West of) IFCU Dr & Veterans Mem Pkwy S - BUS881",,40.3672601501501,-86.8686307590384,0
2a96e079-291d-4df3-a281-dc87b760c061,BUS354N,"(North of) Brady Ln & 18th St - BUS354N","(North of) Brady Ln & 18th St BUS354N",40.3818366159103,-86.8761235103681,0
07fea694-f05f-43a7-83e6-45ab816cd033,BUS297,"Edgelea Dr & Teal Rd (SW Corner) - BUS297","Edgelea Dr & Teal Rd (SW Corner) BUS297",40.3952986237585,-86.8790082263355,0
27ec9363-fb4d-41a5-a681-0bfa90d7027c,BUS875NE,"Regal Valley Dr & Veterans Mem Pkwy S - BUS875NE",,40.3671998004436,-86.8710943681654,0
233ea271-a261-4dc1-886b-93a3d63ae62e,BUS807E,"(North of) Manitou Dr & 18th St - BUS807E",,40.3855501345128,-86.876114122636,0
9cc5d4ab-25eb-477c-abad-9ed9cb5ef021,BUS521NE,"Davis Dr & Beck Ln (NE Corner) - BUS521NE","Davis Dr & Beck Ln (NE Corner) BUS521NE",40.3881411485756,-86.8815013397635,0
4360f230-da70-451f-b7c0-ce1c50f80ae5,BUS537N,"9th St & Beck Ln (NE Corner) - BUS537N","9th St & Beck Ln (NE Corner) BUS537N",40.3880687289279,-86.8856292596834,0
23513233-0c70-460a-b383-834294d7f378,BUS693E,"Sarasota Dr & 9th St (SE Corner) - BUS693E",,40.3931206699086,-86.8857875100248,0
dc5ca72c-9a11-4593-bedc-72407d138175,BUS544NE,"14th St & Logan Ave (NE Corner) - BUS544NE","14th St & Logan Ave (NE Corner) BUS544NE",40.4026519002111,-86.8813484538405,0
9d03f39a-40ae-4214-945c-4a7e8748cc98,BUS198E,"(North of) JR Hiatt Dr & 18th St - BUS198E","(North of) JR Hiatt Dr & 18th St BUS198E",40.3975945948121,-86.8763595447755,0
982239ed-72d7-4569-958e-d2384edf8e6d,BUS990,"18th St at RRX (at Trailhead) - BUS990",,40.3792268263833,-86.876107417113,0
cb7f18fc-9553-430a-928b-8b55d752913d,BUS865SE,"Eastway St & 18th St (SE Corner) - BUS865SE",,40.3833990027546,-86.8760658428708,0
ef9653cf-2290-43aa-8ed7-fe4f3fd10b3d,BUS327NE,"El Prado Ave & Logan Ave (NE Corner) - BUS327NE","El Prado Ave & Logan Ave (NE Corner) BUS327NE",40.4026679934661,-86.8793904411429,0
3e52b91d-3e22-48a9-97af-7821979dc9cd,BUS884,"Summertime Tr & 18th St (SE Corner) - BUS884",,40.3743371590577,-86.8758123741038,0
35f44da4-b2da-49f8-a208-049e739d0af3,BUS891,"(West of) Cougill & Veterans Mem Pkwy S - BUS891",,40.3672708789868,-86.8610266960279,0
ddb52d0a-0be7-45d4-94b1-67a29593640f,BUS679E,"Bishop Woods on 9th St (East Side) - BUS679E",,40.3896981710016,-86.8856922915991,0
6fbfe503-ef76-4eea-b90a-0d7d60dff249,BUS253S,"(South of) Kossuth St & 9th St - BUS253S","(South of) Kossuth St & 9th St BUS253S",40.4097932821389,-86.8864003948212,0
b86b2294-fbf0-4b3a-8feb-1237453ea26f,BUS916,"(West of) Braddock Dr & Veterans Mem Pkwy S-BUS916",,40.3672239403262,-86.8741950019714,0
c85a14ec-7421-4990-82c7-98690868f673,BUS887,"(Roundabout) Chilton Park on Chilton Dr - BUS887",,40.358605,-86.853482,0
15364c61-bf73-4bcb-bec3-bd60aec424a5,BUS528,"King St & 9th St & (SE Corner) - BUS528","King St & 9th St & (SE Corner) BUS528",40.4044154527435,-86.8861321739037,0
c6565615-cf5a-4d67-8676-cdb967c178f1,BUS682N,"(West Drive) Edgelea School on Beck Ln - BUS682N",,40.3881505363077,-86.8793394791686,0
1ffc4a35-3e73-410f-bc40-a03253078115,BUS890,"Walmart on Concord Rd (SE Corner) - BUS890",,40.3646449962047,-86.8569242570951,0
4ce95ff2-5375-49ca-87fe-24f9ce3c7501,BUS880,"(West of) Cheryl Ln & Veterans Mem Pkwy S - BUS880",,40.3672521035225,-86.8656199792397,0
81ee5105-d468-49a9-92b8-00178b6a013e,BUS248,"4th St & Columbia St (NE Corner) - BUS248","4th St & Columbia St (NE Corner) BUS248",40.418259675399,-86.8930415447379,0
4d843346-ec35-488a-83d1-fa464a955ad8,BUS674,"6th St & Columbia St (NE Corner) - BUS674",,40.4182543109807,-86.8905859822384,0
f93218ce-e7a9-4169-9216-0647a98d96f7,BUS502,"Art Museum on 9th St - BUS502","Art Museum on 9th St BUS502",40.4163861522905,-86.8866538635882,0
7a81f3b0-e960-4060-9c9a-fcb34e1610d3,BUS697,"Central Ave & 9th St (SE Corner) - BUS697",,40.4062541071328,-86.8862448266891,0
b073d663-6352-4845-9dde-297943ef6ac0,BUS888NE,"Doten Dr & Chilton Dr (NE Corner) - BUS888NE",,40.3586985384642,-86.8559828016748,0
196d281a-d562-40db-9e95-8322c6b0fb5a,BUS514S,"Crestview Ct & Teal Rd (SW Corner) - BUS514S","Crestview Ct & Teal Rd (SW Corner) BUS514S",40.3952516850979,-86.8846824398448,0
d40f7d4e-13c0-4e3a-9c4e-efb4f53e5676,BUS889SE,"Marcastle Dr & Concord Rd (SE Corner) - BUS889SE",,40.3595903730148,-86.8568639073887,0
5ace34f5-8c3e-48c1-90f3-75f9abc08c0f,BUS675,"5th St & Columbia St (NE Corner) - BUS675",,40.4182569931899,-86.8918090696221,0
40c30ca8-8ce2-475e-8831-8c0d67f78f4a,BUS279,"State St & 9th St (SE Corner) - BUS279","State St & 9th St (SE Corner) BUS279",40.4128670938532,-86.8865653506854,0
100a6c76-866a-4adb-8698-e722b3b6e332,BUS870SE,"Southaven Blvd & 18th St (SE Corner) - BUS870SE",,40.3768463657407,-86.875945143458,0
c5bab683-145a-42bb-b81f-a191fd045c8f,BUS494S,"Fairgrounds on Teal Rd (SW Corner) - BUS494S","Fairgrounds on Teal Rd (SW Corner) BUS494S",40.3952905771309,-86.8812089789634,0
a4ece202-6bc7-4286-9176-124925ab43c7,BUS918,"Payne Luxury Apts on 18th - BUS918",,40.4139641174057,-86.8865707151038,0
f4281023-2db8-4ee7-a318-7b887613a42a,BUS917,"(North of) Troxel Ct & 18th St - BUS917",,40.3681814890016,-86.8759129569479,0
b7d6b251-8c6c-4825-b239-aa3baac01df7,BUS883,"Bridgewater Cir & 18th St (SE Corner) - BUS883",,40.3707805496919,-86.8759478256671,0
35466c55-1bf1-4af1-bed6-6f2a200715b8,BUS986N,"(West of) 18th St & Logan Ave - BUS986N",,40.4027149321267,-86.8769643829444,0
5fec6620-dfc2-44ab-bb86-8702da1cb53b,BUS724E,"Congress St & 18th St (NE Corner) - BUS724E",,40.4113489634603,-86.8771145866582,0
cb7fbb34-ea8f-48f5-9e6e-4af554c0df5b,BUS467,"(North of) 22nd St & Teal Rd - BUS467","(North of) 22nd St & Teal Rd BUS467",40.3957157072851,-86.8716375155233,0
4d77f09b-4dc3-4515-bf26-56a0e577183a,BUS158,"South St & Main St (SE Corner) - BUS158","South St & Main St (SE Corner) BUS158",40.4172323892851,-86.8784395979905,0
7e92644b-9226-45c1-9843-8dd09cfaeb32,BUS737,"Maumee Pl & Summerfield Dr (SE Corner) - BUS737",,40.3888505929023,-86.8710447472957,0
2aaf3c89-f4e4-465e-bb0c-ed3ad0a8689e,BUS735E,"(South of) Shasta Dr & Commanche Tr - BUS735E",,40.3824776639031,-86.8693670254569,0
91849c27-7c5f-42e7-9d05-6c04d40f5d2e,BUS731E,"(South of) Beck Ln & Commanche Tr - BUS731E",,40.3880687289279,-86.8699302893835,0
f46131b3-24a8-4437-916f-6a2a6e8ded7d,BUS187SE,"Teal Rd & 18th St (SE Corner) - BUS187SE","Teal Rd & 18th St (SE Corner) BUS187SE",40.3953401980007,-86.8764306233186,0
8cd24001-9e10-4150-b42d-bc1e649ea5ac,BUS391NE,"Alabama St & Main St (NE Corner) - BUS391NE","Alabama St & Main St (NE Corner) BUS391NE",40.4165229449584,-86.8776282297151,0
debf2216-1570-4162-9e5d-3d9d9400ea31,BUS742,"(West of) Tinkler St & Main St - BUS742",,40.4186553012523,-86.8809716034515,0
9190f5b5-cad6-41c8-9399-ac87da8beb48,BUS466E,"(North of) JR Hiatt Dr & 22nd St - BUS466E","(North of) JR Hiatt Dr & 22nd St BUS466E",40.3976093469625,-86.8716616554059,0
8a44c074-5506-46a5-874f-40659dc1704b,BUS719,"Torchwood Dr & SR 25/38 (SW Corner) - BUS719",,40.3899154299447,-86.840868552975,0
e8c26ba2-988e-4135-aac3-7b948ba99c81,BUS142N,"Ivy Tech on Creasy Ln (across Shelter) - BUS142N","Ivy Tech on Creasy Ln (across Shelter) BUS142N",40.3852443626669,-86.8418126906045,0
d4e84da3-8617-436c-b599-32e77033e9d4,BUS256N,"State St & 18th St (NE Corner) - BUS256N","State St & 18th St (NE Corner) BUS256N",40.4063439611402,-86.8767417595829,0
5aa69905-bd2f-4121-9c99-642d4ff1f1d0,BUS743,"(West of) Perrin Ave & Main St - BUS743",,40.4191072534983,-86.882705651683,0
fa7710ef-61c0-485b-8e06-8a10f1d5aee0,BUS942,"Ottawa Dr & Summerfield Dr (SE Corner) - BUS942",,40.3910339111706,-86.8710715693874,0
f1f10dc3-8abf-48cd-a438-ffe08022d2e9,BUS378NW,"(West of) Earl Ave & State St - BUS378NW","(West of) Earl Ave & State St BUS378NW",40.4015200079393,-86.8696137887009,0
c0a5cb35-e5ea-48f9-bb1d-7c8b4ddf32b8,BUS736,"Yuma Ave & Commanche Tr (SE Corner) - BUS736",,40.3847924104209,-86.8695789199816,0
05611ad9-f726-43f1-bdd2-64e08218c611,BUS740,"Everett St & 18th St (SE Corner) - BUS740",,40.4131567724441,-86.8770770357297,0
42029086-1334-4757-97f3-2703127cbea3,BUS397NE,"11th St & Main St (NE Corner) - BUS397NE","11th St & Main St (NE Corner) BUS397NE",40.4191608976818,-86.8848514190228,0
7ceb0776-b295-4387-8795-7e1bdd8d01c3,BUS428N,"(West of) Summerfield Dr & Iroquois Tr - BUS428N","(West of) Summerfield Dr & Iroquois Tr BUS428N",40.391900264734,-86.8711748344406,0
b6700c9a-7fed-4da7-a25e-fc9a265f3ca0,BUS739,"18th St & Shoshone Dr (NE Corner) - BUS739",,40.3934398528004,-86.8763769791351,0
4d124e4e-85ae-40c5-a9c2-2b8fe1f7b53a,BUS726N,"20th St & State St (NE Corner) - BUS726N",,40.4046501460463,-86.8741869553439,0
22d3a564-0861-4bae-9945-edd7555d6a90,BUS469N,"Georgetown Apts on Shoshone Dr - BUS469N","Georgetown Apts on Shoshone Dr BUS469N",40.3934452172187,-86.8753349408707,0
8a646432-3207-4a41-831b-5823d6fc1882,BUS315N,"(West of) Osage Dr & Shoshone Dr - BUS315N","(West of) Osage Dr & Shoshone Dr BUS315N",40.3934559460554,-86.8722705168885,0
7a02f3a4-31de-4960-8fbb-d60bc69fcdb8,BUS725E,"Adams St  & 18th St (SE Corner) - BUS725E",,40.4081826155295,-86.8768061326031,0
9e632bc1-1ef9-496d-b705-d6c45be47d2d,BUS380NW,"Salem St & 9th St (NW Corner) - BUS380NW","Salem St & 9th St (NW Corner) BUS380NW",40.4257457212058,-86.8869985274672,0
dd4158ef-e245-41b2-9e43-815ac1f1c4e4,BUS278NE,"(East of) Elmwood Ave & Greenbush St - BUS278NE","(East of) Elmwood Ave & Greenbush St BUS278NE",40.4321441311922,-86.8657675007443,0
c49e8a46-5122-434f-9e12-d7c3f39270a7,BUS781,"(West of) 29th St & Greenbush St - BUS781",,40.4321696121794,-86.8621907748098,0
84b51be7-479a-4126-97a7-cfd4f4105661,BUS193N,"(North of) Creasy Ln & SR 26 (East Side) - BUS193N","(North of) Creasy Ln & SR 26 (East Side) BUS193N",40.4179404925073,-86.8388689660352,0
0c7a2f5e-55e6-4fcf-9425-1bf7f6c77aab,BUS960,"TRW on 9th St - BUS960",,40.4314132291921,-86.8871822587956,0
55bcbcc2-90c5-4959-8750-e3e9dcef1778,BUS245NE,"Market Square (EAST) on Greenbush St - BUS245NE","Market Square (EAST) on Greenbush St BUS245NE",40.4321575422381,-86.8691350143632,0
13e02f48-e10d-49ec-a348-1f16c0183cfd,BUS292NW,"Hartford St & 9th St (NW Corner) - BUS292NW","Hartford St & 9th St (NW Corner) BUS292NW",40.4277144627401,-86.8870468072323,0
274a8e05-e11d-4776-afbe-ac28af2dd3ea,BUS230N,"Wabash Center on Greenbush St - BUS230N","Wabash Center on Greenbush St BUS230N",40.4321347434601,-86.8741936608668,0
1ffd9e7b-9249-4143-b826-dc188780ed23,BUS750,"16th St & Greenbush St (NE Corner) - BUS750",,40.4320998747408,-86.8797431516494,0
84ccc99a-94c8-42ed-9d50-33d4bde745cd,BUS765NE,"Julia Ln & Sickle Ct (NE Corner) - BUS765NE",,40.4047373178445,-86.8353056511465,0
75572af8-97c2-4215-b0b1-2e35a01b4d86,BUS759E,"S Driftwood & Shenandoah Dr (SE Corner) - BUS759E",,40.4214756441996,-86.8463362363777,0
1a314fbf-aff8-483d-ab16-21296b627976,BUS526NE,"Chauncey Court & Greenbush St (NE Corner)-BUS526NE","Chauncey Court & Greenbush St (NE Corner) BUS526NE",40.4322447140363,-86.8474842219045,0
1054b4a0-5ba2-433d-9510-8c09c5dd6908,BUS987NW,"9thSt & Roberts St (NW Corner) - BUS987NW",,40.4297811049092,-86.8871111802525,0
df9f2dcd-8cae-4f6d-a32f-14630c72ac8c,BUS508NE,"14th St & Greenbush St (NE Corner) - BUS508NE","14th St & Greenbush St (NE Corner) BUS508NE",40.4320971925316,-86.88229259147,0
73ed96f9-779a-4479-bc20-1e90ec37198a,BUS774S,"Emerald Pines & McCarty Ln - BUS774S",,40.402934873279,-86.8367071054403,0
bbe5e6d9-e7ac-4c53-80e4-227bed34a2ef,BUS200N,"(West of) Harper Dr & Julia Ln - BUS200N","(West of) Harper Dr & Julia Ln BUS200N",40.4064432028796,-86.8344983061849,0
4f87ee40-0289-431d-a3d0-5ea06d590900,BUS756E,"Redondo Dr & Shenandoah Dr (SE Corner) - BUS756E",,40.4281074063842,-86.8449991551041,0
0e1e9bf2-dded-4412-bb63-a972e14f21b6,BUS919E,"St Francis Way & Creasy Ln (NE) - BUS919E","St Elizabeth Hospital on Creasy (NE) - BUS919E",40.39289,-86.83826,0
e23e01b8-f69a-425c-aeea-cb29ac39955f,BUS778,"(North of) Amherst Dr & Shenandoah Dr - BUS778",,40.4316224415077,-86.8448234704032,0
a616242e-0502-4a09-a670-231c6df00b95,BUS763E,"Fortune Dr & Creasy Ln (SE Corner) - BUS763E",,40.4112926370676,-86.8386959635434,0
fa123f1d-bc9e-49de-9e92-896457f1ae14,BUS920SE,"Claremont Ln & Shenandoah Dr(SE Corner) - BUS920SE","Claremont Ln & Shenandoah Dr (SE Corner) - BUS920SE",40.4230286433118,-86.8470899371558,0
1dd51530-b93f-4e5c-90a5-1f6a1e5d76b3,BUS231N,"(West of) US 52 & Greenbush St - BUS231N","(West of) US 52 & Greenbush St BUS231N",40.4321830232252,-86.858748159334,0
6ff32f55-203e-47d4-806e-33eb17d78f44,BUS296,"10th St & Greenbush St (NE Corner) - BUS296","10th St & Greenbush St (NE Corner) BUS296",40.4321159679959,-86.8858813873459,0
cca0b1fe-35a9-4726-b9e8-bdd4e217e519,BUS330NE,"18th St & Greenbush St (NE Corner) - BUS330NE","18th St & Greenbush St (NE Corner) BUS330NE",40.43210255695,-86.8774994836747,0
3be3cde5-2ae3-439b-afd5-e9e579c6d35e,BUS245NW,"Market Square (WEST) on Greenbush St - BUS245NW","Market Square (WEST) on Greenbush St BUS245NW",40.432148154506,-86.8716978652297,0
1f43df15-a158-402e-aa62-a5ca3753f47f,BUS341SE,"Union St & Shenandoah Dr (SE Corner) - BUS341SE","Union St & Shenandoah Dr (SE Corner) BUS341SE",40.4248391345047,-86.8470389751815,0
c9e50fa6-0cf8-4d69-a772-c42a907be093,BUS779SE,"Kimberly Dr & Shenandoah Dr (SE Corner) - BUS779SE",,40.4306300241131,-86.8448355403444,0
0a701c07-b7ad-4408-8ec6-e357bc654c25,BUS762,"The Pavilions & Creasy Ln - BUS762",,40.41607903934,-86.8388555549893,0
c7f8f63f-f0bc-40fc-8da6-660024c8580c,BUS539,"Stinger St & Creasy Ln (SE Corner) - BUS539","Stinger St & Creasy Ln (SE Corner) BUS539",40.4090328758379,-86.8386838936021,0
f5a14a4a-034e-4141-84ed-957866134d52,BUS780,"Hemlock Rd & Greenbush St (NE Corner) - BUS780",,40.4322648306051,-86.8558379623793,0
5b09cd03-7b8f-427c-a4be-ebdcdee66824,BUS773,"Burberry Place on Creasy Ln (SE Corner) - BUS773",,40.4008253157631,-86.8383861683837,0
658d1564-6293-446c-93f4-a3e5d8791bd0,BUS760N,"Executive Dr & Rome Dr (NE Corner) - BUS760N",,40.420661593715,-86.8435883130782,0
f13651f4-83a6-4f9a-8ed5-87bf93e4f6fe,BUS461,"Sam's Club on Creasy Ln - BUS461","Sam's Club on Creasy Ln BUS461",40.4146614917911,-86.8388340973159,0
a072041f-5848-4b88-b098-4f4fb5cb5086,BUS437E,"PayLess Supermarket on SR 25/38 - BUS437E","PayLess Supermarket on SR 25/38 BUS437E",40.3914362425468,-86.8439986910819,0
f6545c28-c799-4686-b210-8ee31040f96a,BUS757SE,"S Navarre Dr & Shenandoah Dr (SE Corner) -BUS757SE",,40.4264685765784,-86.8470832316329,0
11b73463-4252-4273-a5c8-4272e0ce8ab5,BUS769SE,"Amelia Ave & Creasy Ln (SE Corner) - BUS769SE",,40.3981672464709,-86.8383647107103,0
100b7bde-a721-4f3f-b874-ca512461368f,BUS770SE,"Creasy Ct & Creasy Ln (SE Corner) - BUS770SE",,40.3962186215054,-86.8383124076314,0
0aebd83c-a88b-46c2-95d8-6697c1236d11,BUS775NE,"Stinger St & Harper Dr (NE Corner) - BUS775NE",,40.4063868764869,-86.8379208050919,0
f7e2f825-5e57-49fc-bf4f-52236255f95c,BUS766E,"(North of) Sickle Ct & McCarty Ln - BUS766E",,40.4030542315873,-86.8342434963133,0
d031a258-0df8-4ab6-98ea-8cd1fc2713ac,BUS777,"Culvers on Rome Dr (North Side) - BUS777",,40.4209204269004,-86.8391707145673,0
91fed4f5-afc8-43f9-9ced-ab259607531e,BUS225NE,"Shenandoah Dr & Rome Dr (NE Corner) - BUS225NE","Shenandoah Dr & Rome Dr (NE Corner) BUS225NE",40.4206562292967,-86.8457850423923,0
c4a3c0c4-d7ab-450d-b95a-20aab4386660,BUS181,"RRX on Brady Ln (SW Corner) - BUS181","RRX on Brady Ln (SW Corner) BUS181",40.381701164347,-86.8668859819702,0
3d0656c9-f95e-42b4-92fd-347143b0cb2e,BUS311,"Rural King on 26th St (at Shelter) - BUS311","Rural King on 26th St (at Shelter) BUS311",40.3970889983826,-86.8669423083629,0
20590630-be27-4261-bc5c-610bf1706763,BUS708,"Winter St & Brady Ln (SW Corner)  - BUS708",,40.3817346919617,-86.8650661030451,0
61338743-a892-4514-b40c-7fa7420a24cc,BUS723,"(North of) Center St & 18th St - BUS723",,40.4146319874902,-86.8772084639793,0
207dfc4d-12a6-4ed3-94bb-0b631f2de02a,BUS727,"23rd St & State St (SW Corner) - BUS727",,40.4024386645817,-86.871011219681,0
f73d8786-a7ca-48d5-945d-8ab682dc22b9,BUS469S,"Georgetown Apts on Shoshone Dr - BUS469S","Georgetown Apts on Shoshone Dr BUS469S",40.3933902319306,-86.8753349408707,0
363965ea-a73c-407a-9211-86706ee9886f,BUS256S,"(East of) State St & 18th St - BUS256S","(East of) State St & 18th St BUS256S",40.4062487427144,-86.8767015264452,0
a5a6fd56-4030-4b26-9bee-0515caa0c500,BUS449S,"(East of) Commanche Tr & Brady Ln - BUS449S","(East of) Commanche Tr & Brady Ln BUS449S",40.3816971410332,-86.8692664426128,0
de3662e8-dc0d-4892-bc1a-af8716e728dc,BUS735W,"(South of) Shasta Dr & Commanche Tr - BUS735W",,40.3824776639031,-86.869431398477,0
097d95b4-9c92-49de-862b-c9cdb28ad43f,BUS315S,"Osage Dr & Shoshone Dr (SW Corner) - BUS315S","Osage Dr & Shoshone Dr (SW Corner) BUS315S",40.3934076662903,-86.8722678346793,0
184450a5-d894-41a7-bc2a-a16057f6d150,BUS428S,"Summerfield Dr & Iroquois Tr (SW Corner) - BUS428S","Summerfield Dr & Iroquois Tr (SW Corner) BUS428S",40.3918493027597,-86.8711694700223,0
87ec0f91-89fb-4fd0-ac23-1b92f0f38e15,BUS378SW,"Earl Ave & State St (SE Corner) - BUS378SW","Earl Ave & State St (SE Corner) BUS378SW",40.4014730692788,-86.8695561212037,0
f1a9ccea-1ac2-49bc-9f2e-9438e68989a4,BUS730,"Hiawatha Ln & Summerfield Dr (NW Corner) - BUS730",,40.3895707660658,-86.8711010736883,0
db07a634-d10f-4c48-8d62-02aa296db07b,BUS416,"Beck Ln & Summerfield Dr (NW Corner) - BUS416","Beck Ln & Summerfield Dr (NW Corner) BUS416",40.3881263964252,-86.871062,0
820cc40f-7580-49bb-98a6-57ba50c9be6d,BUS963,"(South of) 18th St & Meadow Dr - BUS963",,40.3945422407712,-86.8764815852929,0
ff26f0f3-a335-4d72-9d0d-5cf7f86d3155,BUS331,"Marsh Entrance on Teal Rd (NE Corner) - BUS331","Marsh Entrance on Teal Rd (NE Corner) BUS331",40.3955118593879,-86.8704117459304,0
abeefe48-4c45-4a7d-9083-1374e651c7ca,BUS142S,"Ivy Tech on Creasy Ln (at Shelter) - BUS142S","Ivy Tech on Creasy Ln (at Shelter) BUS142S",40.3851571908687,-86.8416343236944,0
529e9672-5863-4a0d-b4c5-835f931ecf30,BUS301S,"Pheasant Run Apts (across Shelter) - BUS301S","Pheasant Run Apts (across Shelter) BUS301S",40.3817937005635,-86.8612224972977,0
c29cabac-2c2c-444d-92b1-8cb420763378,BUS731W,"(South of) Beck Ln & Commanche Tr - BUS731W",,40.3880673878233,-86.8699986857175,0
3cf7469d-f1df-42cf-806c-7ae6a1d740fb,BUS729,"Iroquois Tr & Osage Dr (NW Corner) - BUS729",,40.3920316929836,-86.8723214788628,0
1dff8733-860b-4b98-afef-1937fe1dc7b1,BUS495,"Kossuth St & 18th St (NW Corner) - BUS495","Kossuth St & 18th St (NW Corner) BUS495",40.4100749141022,-86.8771910296196,0
e8517487-c861-4aeb-8507-6302e8c7f2de,BUS414,"Gregory Ave & 26th St (NW Corner) - BUS414","Gregory Ave & 26th St (NW Corner) BUS414",40.3990537166031,-86.8670388678932,0
9b3d5c5e-9cec-49b7-a866-331a6492c673,BUS457,"(South of) Manitou Dr & Commanche Tr - BUS457","(South of) Manitou Dr & Commanche Tr BUS457",40.3857459357826,-86.8699423593248,0
09a17959-5f54-4124-bfcf-c87d4eb41cd0,BUS941SE,"Creasy Ln & Bonlou (SE Corner) - BUS941SE",,40.3870333961864,-86.8401054644648,0
fe75c23b-a975-4079-abdc-3bd675fdcdf0,BUS404SW,"(West of) US 52 & Brady Ln - BUS404SW","(West of) US 52 & Brady Ln BUS404SW",40.3822832037379,-86.8439946677682,0
68fb136d-2de2-4e34-a080-2d802c553aa3,BUS940,"(South of) Larue St & 18th St - BUS940",,40.4135135062643,-86.8772030995609,0
098afe34-03ea-46ee-84fe-6cc68f46f15f,BUS725W,"Adams St  & 18th St (NW Corner) - BUS725W",,40.4082402830267,-86.8768798933554,0
42ab8514-9b3a-47af-a884-e36ebcc22641,BUS710S,"Village Pantry on Brady Ln - BUS710S",,40.381792359459,-86.8586636697449,0
84b1198a-5619-456b-a1fd-2d970a4d38b7,BUS726S,"20th St & State St (SW Corner) - BUS726S",,40.4046085718041,-86.8742365762136,0
1eb56247-0440-4b17-9b98-f79ed0c00ba8,BUS724W,"(North of) Congress St & 18th St - BUS724W",,40.4113570100878,-86.8772232161297,0
a7f04153-cbfa-4f96-9988-d1802741e2d0,BUS711S,"Imperial Pkwy & Brady Ln (SW Corner) - BUS711S",,40.3818795312571,-86.8491364627562,0
89df5d84-6210-46ee-8c46-a65c420f8b71,BUS621,"Calvary Baptist on Kalberer Rd - BUS621","Calvary Baptist on Kalberer Rd BUS621",40.4689279478149,-86.9128054030422,0
60ed4f5c-0f35-43ea-ac6e-25d057846e64,BUS597E,"Pathway Ln & Happy Hollow Rd (SE Corner) - BUS597E","Pathway Ln & Happy Hollow Rd (SE Corner) BUS597E",40.4465355245194,-86.8993474185078,0
27f17df4-6435-4b1d-8b63-ccd6c8bbb607,BUS617,"(West of) Solders Home Rd & Kalberer Rd - BUS617","(West of) Solders Home Rd & Kalberer Rd BUS617",40.4688863735727,-86.9003170371245,0
ce49991b-db1f-4de1-9e34-0871c21f4681,BUS111,"Lambert Fieldhouse on Stadium Ave - BUS111","Lambert Fieldhouse on Stadium Ave BUS111",40.4313703138453,-86.9151791581618,0
fdda85f6-462c-49c5-8579-7766f4820dd6,BUS595E,"Parkway Apts on Happy Hollow - BUS595E","Parkway Apts on Happy Hollow BUS595E",40.4514815182377,-86.9021838547101,0
5df15d2b-9e16-42b9-80bf-68468fde2103,BUS123E,"Nobb Hill Apts on Happy Hollow - BUS123E","Nobb Hill Apts on Happy Hollow BUS123E",40.4396154248485,-86.8992173313628,0
ae4a6719-580a-4c82-93c0-23a95df7294a,BUS602E,"(North of) River Rd & Robinson St - BUS602E","(North of) River Rd & Robinson St BUS602E",40.4283514874191,-86.9007032752456,0
9adcf27a-4f46-42b2-8235-4dd630ae0e82,BUS620,"Wakefield/Laporte & Kalberer Rd (NE Corner)-BUS620","Wakefield/Laporte & Kalberer Rd (NE Corner) BUS620",40.4689306300241,-86.9096739238306,0
d0fcde47-70ee-4241-a9c9-30cbb4c7e93b,BUS144E,"Sharon Rd & Soldiers Home Rd (NE Corner) - BUS144E","Sharon Rd & Soldiers Home Rd (NE Corner) BUS144E",40.4543876918785,-86.9029429199066,0
386d9fe8-fa9e-4c8a-953c-92593ad3e56c,BUS599E,"Laurel Dr & Happy Hollow Rd (SE Corner) - BUS599E","Laurel Dr & Happy Hollow Rd (SE Corner) BUS599E",40.4441952970144,-86.8995687007647,0
5a438e94-a8f9-4c72-ad52-df4d829c9d45,BUS618,"Westmorland & Kalberer Rd (NE Corner) - BUS618","Westmorland & Kalberer Rd (NE Corner) BUS618",40.4689306300241,-86.9026116670735,0
564d0b9f-88de-4f00-b3f1-733bfc647273,BUS145E,"(North Drive) Williamsburg Apts(SE Corner)-BUS145E","(North Drive) Williamsburg Apts(SE Corner) BUS145E",40.432035,-86.899016,0
b682077b-c34e-44fa-bbbe-59fe71e09fcd,BUS927NW,"Broadview Rd & Soldiers Home(NW Corner) - BUS927NW","Broadview Rd & Soldiers Home (NW Corner) - BUS927NW",40.472596,-86.896606,0
501b3cc2-de73-4d8b-88e7-cdef952094c5,BUS600N,"(North of) Catherwood Dr & Happy Hollow - BUS600N","(North of) Catherwood Dr & Happy Hollow BUS600N",40.4371008537472,-86.8993031620564,0
0f691bb4-d3b3-49b8-97dd-e7d48be95682,BUS153,"Greentree on Kalberer Rd (NE Corner) - BUS153","Greentree on Kalberer Rd (NE Corner) BUS153",40.4689681809526,-86.9142631837287,0
ee1423da-71e2-472c-a79c-9c2e834015ed,BUS605,"Hollowood Dr & Happy Hollow Rd (SE Corner) -BUS605","Hollowood Dr & Happy Hollow Rd (SE Corner) - BUS605",40.4435542490217,-86.8995177387904,0
e820889e-87c1-45ac-8dc3-62276252fefa,BUS332NW," 3rd St & Russell St (NW Corner) - BUS332NW"," 3rd St & Russell St (NW Corner) BUS332NW",40.4273121313639,-86.9192064952377,0
699058df-8fee-4d10-a811-a561a14435ac,BUS460,"(South Drive) Williamsburg Apts (SE Corner)-BUS460","(South Drive) Williamsburg Apts (SE Corner) BUS460",40.430559,-86.899728,0
e99078de-e1e6-4842-bee6-9132de3ca0da,BUS439,"(South of) Russell St & Stadium Ave - BUS439","(South of) Russell St & Stadium Ave BUS439",40.4312214512361,-86.919225270702,0
892ab2f6-5217-4237-85f3-17919fcb47d1,BUS361SE,"Chippewa & Happy Hollow Rd (SE Corner) - BUS361SE","Chippewa & Happy Hollow Rd (SE Corner) BUS361SE",40.4498735338374,-86.9008870065741,0
7a259575-7a63-4076-8ed2-583d35dfa002,BUS619,"Cardigan Ln & Kalberer Rd (NE Corner) - BUS619","Cardigan Ln & Kalberer Rd (NE Corner) BUS619",40.4689131956645,-86.9050860050372,0
32e08e60-eefe-469c-9b16-658a86dbd4a3,BUS928NE,"Veterans Home Entrance (North Side) - BUS928NE",,40.474506,-86.895548,0
1d8e576d-310f-4765-af2d-af64ac919bee,BUS614,"Indian Rock Dr & Soldiers Home (SE Corner) -BUS614","Indian Rock Dr & Soldiers Home (SE Corner) BUS614",40.464579,-86.899663,0
082b7a44-d13b-4635-9236-264bee1d3a7c,BUS931,"Mitchell Hall at Indiana Veterans Home - BUS931",,40.4715068919365,-86.8885582321023,0
b32eb134-476c-48b9-a7fd-36915cf126af,BUS936NE,"(North of) Overlook Dr & Soldiers Home - BUS936NE","(North of) Overlook Dr & Soldiers Home Rd - BUS936NE",40.4608384049438,-86.901112,0
0ccb7f6f-97ee-4f81-8dd2-c52a0348bb5c,BUS616,"Heritage Health Care on Soldiers Home Rd - BUS616","Heritage Health Care on Soldiers Home Rd (NE Corner) BUS616",40.4679824690808,-86.8994171559463,0
8c242c95-7bac-43bc-af6a-916953c479ae,BUS932,"Pyle Hall at Indiana Veterans Home - BUS932",,40.4716249091402,-86.8917353088698,0
7c68d061-70e9-4078-8547-3df071a6c679,BUS930,"Dehart Hall at Indiana Veterans Home - BUS930",,40.4722538871916,-86.8884080283885,0
a09c30c4-46f0-4565-bca0-926c71d54181,BUS933,"Ingersol Hall at Indiana Veterans Home - BUS933",,40.4732221647037,-86.8923227126791,0
f7ef6a30-0f6e-4a39-9169-0a25f6081842,BUS951,"Salisbury St & Wiggins St (SW Corner) - BUS951",,40.4265664772133,-86.905704254252,0
b874696d-c642-466b-9920-69ad9f8e297f,BUS613,"Hartman Ct & Soldiers Home Rd (SE Corner) - BUS613","Hartman Ct & Soldiers Home Rd (SE Corner) BUS613",40.4594919359381,-86.9014247895136,0
0bc5565a-67ff-449e-9134-9fe73100a619,BUS615SE,"Tamiami Tr & Soldiers Home Rd (SE Corner)-BUS615SE","Tamiami Tr & Soldiers Home Rd (SE Corner) BUS615SE",40.466199,-86.8995338320454,0
7f47031b-024e-46ce-99f6-ebbd85ff6d45,BUS928SE,"Veterans Home Entrance on Soldiers Home - BUS928SE",,40.474506,-86.895548,0
7a3f133d-100c-4004-88cf-39bc97989101,BUS927SE,"Broadview Rd & Soldiers Home(SE Corner) - BUS927SE","Broadview Rd & Soldiers Home (SE Corner) - BUS927SE",40.472596,-86.896606,0
94dc6038-92ed-468d-bf80-9ee237a00a8f,BUS929,"Lincoln Hall at Indiana Veterans Home - BUS929",,40.4732422812725,-86.8906677896182,0
d9087769-4eee-4318-bb13-f26df80b7dee,BUS926,"(North of) Myrtle Dr & Soldiers Home Rd - BUS926",,40.456489202767,-86.9029281677561,0
986e36cb-2a65-448e-b7a5-f786c639ddb5,BUS138W,"(West of) Salisbury St & Cumberland Ave - BUS138W","(West of) Salisbury St & Cumberland Ave BUS138W",40.4606627202429,-86.9159583399271,0
0d7d846e-ab0b-430c-8816-8b1c1cef6e46,BUS635SW,"Vine St & Stadium Ave (SW Corner) - BUS635SW","Vine St & Stadium Ave (SW Corner) BUS635SW",40.4307721811993,-86.9082000498891,0
63fa0fed-f520-4ddf-a8e2-ad700555df6b,BUS511NW,"(West of) Kent Ave & Cumberland Ave - BUS511NW","(West of) Kent Ave & Cumberland Ave BUS511NW",40.4607378220998,-86.9307171959112,0
1d15dad0-0563-4cd3-8e81-148250925df3,BUS337NE,"Grant St & Salisbury St (NE Corner) - BUS337NE","Grant St & Salisbury St (NE Corner) BUS337NE",40.4418725038691,-86.9107307142455,0
0ae88d73-bc30-43fc-ade9-ade34f6efdf3,BUS455N,"Salem Courthouse Apts (at Shelter) - BUS455N","Salem Courthouse Apts (at Shelter) BUS455N",40.4607431865181,-86.9267904416794,0
012b1a02-d310-4dfc-8c0c-02ab96cc30a1,BUS541N,"(Front Door) Friendship House - BUS541N","(Front Door) Friendship House BUS541N",40.4611924565549,-86.9214810086179,0
20e7c9e5-e93b-4449-a06b-397a7f550dd0,BUS610,"Kent Ave & Salisbury St (SE Corner) - BUS610","Kent Ave & Salisbury St (SE Corner) BUS610",40.4547068747703,-86.9155922183747,0
d8f49eed-d035-475c-97c6-494306fcbc28,BUS484,"Park Ridge Dr & Salisbury St (SE Corner) - BUS484","Park Ridge Dr & Salisbury St(SE Corner) BUS484",40.450833764722,-86.9155841717472,0
cbe62de1-090d-4028-ad20-e47264c5772a,BUS131E,"Westminster Village N & Salisbury (NE) - BUS131E","Westminster Village N & Salisbury (NE) BUS131E",40.4586108302242,-86.9155734429105,0
ca5cc414-a463-4221-8bb8-038f3a324a59,BUS218NE,"(East of) Yeager Rd & Cumberland Ave - BUS218NE","(East of) Yeager Rd & Cumberland Ave BUS218NE",40.4607820785512,-86.9237434520569,0
157c3b85-9ad8-4bb9-a5d8-c1babd0b1e21,BUS636SE,"Dehart St & Salisbury St (SE Corner) - BUS636SE","Dehart St & Salisbury St (SE Corner) BUS636SE",40.4326296110529,-86.9057002309382,0
88de8b0c-ca7e-4739-b08c-d667f1ee6bc5,BUS530S,"McDonalds on Stadium - BUS530S","McDonalds on Stadium BUS530S",40.4313247162893,-86.9131487258165,0
0bea073d-9b10-4298-8294-29fb286436b2,BUS637SE,"Salisbury St & Rockland Dr (SE Corner) - BUS637SE","Salisbury St & Rockland Dr (SE Corner) BUS637SE",40.4389354848227,-86.9074436669018,0
4ba442d5-5eef-4e5a-8fd9-fb212b6e2527,BUS291SW,"Salisbury St & Stadium Ave (SW Corner) - BUS291SW","Salisbury St & Stadium Ave (SW Corner) BUS291SW",40.4307788867223,-86.905743146285,0
998a58dc-6511-4c97-be1a-7e16af0c1976,BUS638,"Creighton Rd & Salisbury St - BUS638","Creighton Rd & Salisbury St BUS638",40.443052675906,-86.9125666864256,0
585f653b-b802-4940-b6e3-79d4adab5128,BUS223,"Lodge Apts on Cumberland Ave (@Shelter) - BUS223","Lodge Apts on Cumberland Ave (@Shelter) BUS223",40.4592384671711,-86.9400740826174,0
829d754c-1739-4e56-bb52-cb7742765312,BUS133N,"Cumberland Pointe on Cumberland(NE Corner)-BUS133N","Cumberland Pointe on Cumberland(NE Corner) BUS133N",40.4607203877402,-86.9192011308194,0
e7a6b1e8-9dd2-4ebe-8fdf-c836a0789dec,BUS633SE,"Sycamore Ln & Salisbury St (SE Corner) - BUS633SE","Sycamore Ln & Salisbury St (SE Corner) BUS633SE",40.4480952291546,-86.9156176993619,0
c66eb4e8-5a73-4adb-8648-68c43dca870b,BUS333SE,"Robinson St & Salisbury St (SE Corner) - BUS333SE","Robinson St & Salisbury St (SE Corner) BUS333SE",40.4351401588404,-86.9057941082593,0
8cbf4973-1cf4-47f1-a869-8a6f564de81c,BUS493,"Happy Hollow School on Salisbury(SE Corner)-BUS493","Happy Hollow School on Salisbury(SE Corner) BUS493",40.4373275004224,-86.906149500975,0
2b79a0a4-aa8f-4b97-9d60-af56d3b28239,BUS365SE,"(South of) Lindberg & Salisbury St - BUS365SE","(South of) Lindberg Rd/Ave &Salisbury St BUS365SE",40.4452802506256,-86.9138487824112,0
b253755a-5362-4ed1-8529-c68435a3dce1,BUS314,"Barlow St & Salisbury St (SE Corner) - BUS314","Barlow St & Salisbury St (SE Corner) BUS314",40.4565146837541,-86.9155506441325,0
60658baa-cf99-493c-b940-7b25055489d5,BUS634SW,"Grant St & Stadium Ave (SW Corner) - BUS634SW","Grant St & Stadium Ave (SW Corner) BUS634SW",40.4312858242563,-86.9104759043739,0
2c86dd03-4827-4612-8065-acb4aaf364c3,BUS641,"White Horse Center - BUS641","White Horse Center ",40.45903,-86.937828,0
4943eefa-6779-4921-8a78-181ec82376d2,BUS541,"Browning St & Cumberland Ave (NE Corner) - BUS541","Browning St & Cumberland Ave (NE Corner) BUS541",40.4607512331457,-86.9209888232344,0
fbf9d316-b597-4e8c-b752-ff14f39376c1,BUS889NW,"Marcastle Dr & Concord Rd (NW Corner) - BUS889NW",,40.3597834920754,-86.8571415160383,0
a92a3d66-567b-447b-a050-a0e98649f8d6,BUS871,"Ortman Ln & 18th St (NW Corner) - BUS871",,40.37455710021,-86.8761382625185,0
0e573639-0619-474b-8450-4ee391a0883e,BUS253E,"(East of) 9th St & Kossuth St - BUS253E","(East of) 9th St & Kossuth St BUS253E",40.4099340981206,-86.8862448266891,0
d7706dcd-55f7-4fd6-b600-dd21dd8efe53,BUS869,"Normandy Dr & 18th St (NW Corner) - BUS869",,40.3781968580602,-86.8763193116378,0
a7ce9fa3-0fde-4165-ba68-b6a3f0becf9a,BUS892,"Sprint Store - BUS892",,40.36612,-86.861971,0
402184e7-5573-4bbb-985b-d3ae8e8c9ba6,BUS381,"Pizza King on Teal Rd - BUS381","Pizza King on Teal Rd BUS381",40.3954944250282,-86.879744492754,0
451d8198-526c-4f35-84a9-ab1b781f0473,BUS182,"Central Ave & 14th St (NW Corner) - BUS182","Central Ave & 14th St (NW Corner) BUS182",40.4063600543952,-86.8815751005158,0
aabdf526-3f89-4542-9b52-170112be9309,BUS876,"Foxfire Apts on Veterans Mem Pkwy S - BUS876",,40.3670026580693,-86.8686428289797,0
2996510c-937f-4b9a-97c8-a5ffead38190,BUS698,"Historical Museum on 9th St - BUS698",,40.4163901756042,-86.8867745630011,0
9c8047c2-1cac-4865-b0eb-65964f214a72,BUS866,"Eagles Lodge on 18th St - BUS866",,40.3813229728533,-86.8762817607094,0
f477f191-58fc-4c4e-a3b9-99db8624c869,BUS108,"14th St & Kossuth St (SW Corner) - BUS108","14th St & Kossuth St (SW Corner) BUS108",40.409994447827,-86.8817279864387,0
5183e8bb-35e1-4005-a185-40c54f72e1ed,BUS693W,"Sarasota Dr & 9th St (SW Corner) - BUS693W",,40.3931206699086,-86.8860503665239,0
707ec6b1-96ae-441d-b36d-8524f7ebb330,BUS198W,"JR Hiatt & 18th St (SW Corner) - BUS198W","JR Hiatt & 18th St (SW Corner) BUS198W",40.3975945948121,-86.8766505644709,0
af15ec39-08ae-4da0-8a31-1faa9fdecb8f,BUS683,"Hitt St & 9th St (NW Corner) - BUS683",,40.4133874424331,-86.8866471580653,0
9a702805-3351-4fe9-bfeb-8ae4d7650c0e,BUS875SW,"Regal Valley Dr & Veterans Mem Pkwy S - BUS875SW",,40.3670200924289,-86.8712606651342,0
eaf9f5c3-ed90-4354-9ab3-aae9b3e12a7f,BUS776,"18th St & Beck Ln (SW Corner) - BUS776",,40.3880378835224,-86.8763568625663,0
cc3e99c2-4902-499f-accf-0441720d4b33,BUS316,"Rosemont St & 9th St (NW Corner) - BUS316","Rosemont St & 9th St (NW Corner) BUS316",40.3947890040153,-86.8860718241973,0
7febcab7-22cf-4c31-9f92-3c2d9d619748,BUS210,"Adams St & 14th St (NW Corner) - BUS210","Adams St & 14th St (NW Corner) BUS210",40.408190662157,-86.881662272314,0
b299a6cd-0493-4620-adec-e7d804bea5e5,BUS327SW,"El Prado Ave & Logan Ave (SW Corner) - BUS327SW","El Prado Ave & Logan Ave (SW Corner) BUS327SW",40.4025781394588,-86.8794990706145,0
88c638c0-e709-4436-ae3f-ef207159830d,BUS807W,"(North of) Manitou Dr & 18th St - BUS807W",,40.3855595222449,-86.8764051423314,0
76ec72e9-34ce-4075-9472-d9c52bdaac08,BUS888SW,"Doten Dr & Chilton Dr (SW Corner) - BUS888SW",,40.3584598218477,-86.8559586617922,0
7d723a02-d593-433e-bc82-ca8b1b0a9710,BUS521SW,"Davis Dr & Beck Ln (SW Corner) - BUS521SW","Davis Dr & Beck Ln (SW Corner) BUS521SW",40.3879346184692,-86.8817454207984,0
d856664c-311b-4ab4-bf68-5aa08ebd5ecd,BUS873,"Waverly Dr & 18th St (NW Corner) - BUS873",,40.3695118647523,-86.8760376796745,0
0b0ac7b0-702b-46e6-81f7-2b911ed070c4,BUS872,"Newsom Dr & 18th St - BUS872",,40.3715074283783,-86.8760443851974,0
01036341-aec4-4232-b5d7-24466bfd4e39,BUS288,"11th St & Kossuth St (SW Corner) - BUS288","11th St & Kossuth St (SW Corner) BUS288",40.4099890834086,-86.8841446569052,0
12cc4538-f301-48e6-a13b-6affcd88269e,BUS986S,"18th St & Logan Ave (SW Corner) - BUS986S",,40.4025553406808,-86.8767860160342,0
ad9c3c7b-65d0-4c60-9a01-e6f735e11108,BUS870NW,"Southaven Blvd & 18th St (NW Corner) - BUS870NW",,40.377066306893,-86.8762710318727,0
3d5be073-3b89-46e8-a39b-789483412ab0,BUS303,"King St & 14th St (NW Corner) - BUS303","King St & 14th St (NW Corner) BUS303",40.404553586516,-86.8815174330185,0
107dfa7c-cf31-4d3c-8f16-8200c5e3692c,BUS514N,"Crestview Ct & Teal Rd (NE Corner) - BUS514N","Crestview Ct & Teal Rd (NE Corner) BUS514N",40.3954555329952,-86.8845764925824,0
c8b0542d-5d6f-465e-81bd-1f319bd1bb33,BUS187NW,"(West of) 18th St & Teal Rd - BUS187NW","(West of) 18th St & Teal Rd BUS187NW",40.3954434630539,-86.8766384945296,0
13d8d21c-9fe8-4dc1-a14c-6b9d0f29b83c,BUS865NW,"Eastway St & 18th St (NW Corner) - BUS865NW",,40.3836202850116,-86.8763917312856,0
47e9470c-e99c-4d67-8456-8966aad4b368,BUS877,"Promenade Pkwy & Veterans Mem Pkwy S - BUS877",,40.3669436494675,-86.8631590523218,0
241e963b-019f-44d5-a3b7-0f42a76fd028,BUS537S,"(East of) 9th St & Beck Ln - BUS537S","(East of) 9th St & Beck Ln BUS537S",40.3878729276581,-86.8854710093421,0
182000e0-f10e-446c-96e3-6577aaf560e1,BUS679W,"Bishop Woods on 9th St (West Side) - BUS679W",,40.389712923152,-86.8859551480982,0
3301ebe8-ea84-45aa-ab82-ba32969c609d,BUS874,"Valley Lakes Center on Veterans Mem Pkwy S -BUS874",,40.3669664482454,-86.8741467222063,0
6aaf260a-74a3-4620-8086-80487bdf089e,BUS893,"Walmart on Vet Mem Pkwy S (Main Entrance) - BUS893",,40.365383,-86.859546,0
cba350a9-09ef-459d-8790-cd23999e1a50,BUS494N,"Fairgrounds on Teal Rd (SE Corner) - BUS494N","Fairgrounds on Teal Rd (SE Corner) BUS494N",40.3954863784007,-86.8812183666955,0
a37073dd-d8ad-4717-8a2c-2d1717ddc782,BUS544NW,"Logan Ave & 14th St (NW Corner) - BUS544NW","Logan Ave & 14th St (NW Corner) BUS544NW",40.4026559235249,-86.8814892698222,0
fe72afea-6dd7-41ec-be6a-f8615acf5235,BUS682S,"(West Drive) Edgelea School on Beck Ln - BUS682S",,40.3879399828875,-86.8793394791686,0
5cddbc5c-c907-481a-9f40-4c5fb9f4b7da,BUS422W,"(Northwest of) 9th St & Canal Rd - BUS422W","(Northwest of) 9th St & Canal Rd BUS422W",40.4340712984843,-86.88745,0
321f255f-bada-471f-b857-9083403db9e0,BUS171,"Beering Dr & Tower Dr (NW Corner) - BUS171","Beering Dr and Tower Dr (NW Corner) - BUS171",40.4330225546969,-86.9193298768598,0
c60b9428-0946-46c4-a911-afaeed1263fe,BUS519W,"Fannon & Salem St (NW Corner) - BUS519W","Fannon & Salem St (NW Corner) BUS519W",40.4257215813232,-86.8914925689395,0
16dd25d4-ff5c-45ae-a179-5d29f10377ef,BUS564,"4th St & Wall St (SE Corner) - BUS564","4th St & Wall St (SE Corner) BUS564",40.4236535980495,-86.8930455680517,0
af74eb39-f053-4244-9fde-da7fdf1b9415,BUS359,"Littleton St & Fowler Ave (NW Corner) - BUS359","Littleton St & Fowler Ave (NW Corner) BUS359",40.42657720605,-86.9037006439984,0
d90d5f32-16b6-4e27-98c5-209c6789cada,BUS361SW,"Happy Hollow Rd & Chippewa (SW Corner) - BUS361SW","Happy Hollow Rd & Chippewa (SW Corner) BUS361SW",40.4498373240135,-86.9010519624383,0
e752c988-2181-48a4-81d4-17ea2781521a,BUS925,"Nighthawk Ln & Navajo St (SW Corner) - BUS925",,40.4513715476615,-86.9118639476218,0
e7896e20-09d5-47fd-8b7d-7e4712c639f5,BUS606,"Chippewa St & Navajo St (NW Corner) - BUS606","Chippewa St & Navajo St (NW Corner) BUS606",40.4492016404391,-86.9035343470296,0
a7f2f2c3-e5be-4118-87e0-6d3e1c0fb217,BUS593,"Wilshire Ave & Cumberland Ave - BUS593",,40.4606479680925,-86.9128147907743,0
fcd03784-49ba-4fa2-a8ab-308f90bd911a,BUS643,"Benton St & Cumberland Ave (NE Corner) - BUS643",,40.4606291926282,-86.9059684518557,0
09360b6c-8045-401b-a0ed-fbb235d1e246,BUS591N,"Barlow St & Cumberland Ave (NW) - BUS591N","Barlow St & Cumberland Ave (NW) BUS591N",40.4606198048961,-86.9094298427957,0
0f082dbb-9ef9-46e9-b004-e1fd667affc5,BUS267N,"(West of) Cumberland & Solders Home - BUS267N","(West of) Cumberland & Solders Home BUS267N",40.4596381163381,-86.9027390720093,0
43f4f721-ffc7-4bb5-8ee4-c0ec1b9aa19b,BUS604,"Marsh Supermarket on Navajo St - BUS604","Marsh Supermarket on Navajo St BUS604",40.4515405268395,-86.9146185764443,0
c2ec6f04-786f-46d6-9574-f5bee1208e39,BUS608,"Delaware Dr & Navajo St (SW Corner) - BUS608","Delaware Dr & Navajo St (SW Corner) BUS608",40.4513621599294,-86.9096658772031,0
d4efdb6d-02e7-4513-832e-b09ad8e78118,BUS607,"Indian Trail Dr & Navajo St (SW Corner) - BUS607","Indian Trail Dr & Navajo St (SW Corner) BUS607",40.4511824519147,-86.9071955625531,0
f27784e3-3a10-4069-b93f-f293dcaaec51,BUS580W,"(South of) Howard Ave & River Rd - BUS580W","(South of) Howard Ave & River Rd BUS580W",40.4234269513742,-86.9035826267947,0
8adee0aa-2fd8-461b-b241-360febe314e0,BUS597W,"(South of) Pathway Ln & Happy Hollow Rd - BUS597W","(South of) Pathway Ln & Happy Hollow Rd BUS597W",40.4464429883029,-86.8994359314106,0
8dfbecf9-5c4e-4ad1-bc9f-093e18b8adfc,BUS138NW,"(North of) Cumberland Ave & Salisbury St -BUS138NW","(North of) Cumberland Ave & Salisbury St BUS138NW",40.4606801546025,-86.9156391570353,0
86c8892c-2b6a-41a2-9183-57fbf26483b7,BUS592,"Bristol Ct & Cumberland Ave (SW Corner) - BUS592","Bristol Ct & Cumberland Ave (SW Corner) BUS592",40.4596716439528,-86.9039366784058,0
23e82a2e-c332-4cfa-b1a9-bbc67ee0a0ed,BUS953,"Linda Ln & Cumberland Ave (SW Corner) - BUS953",,40.4600726342245,-86.905106121606,0
22bdf2ff-68ee-4369-9954-0a5ddffec980,BUS596,"Happy Hollow Rd & Knox Dr (NW Corner) - BUS596",,40.4483004181564,-86.8998141229042,0
c8f5236f-a48a-41a8-9bd2-f324b00a8357,BUS145W,"Dehart St & River Rd/Williamsburg Apts - BUS145W",,40.4320073385243,-86.8992884099059,0
5270235d-5397-4b37-91bb-ca5e2e916efb,BUS595W,"Parkway Apts on Happy Hollow - BUS595W","Parkway Apts on Happy Hollow BUS595W",40.4514117807991,-86.9023447872606,0
c76556f7-1b01-45e5-a54d-1d471e880c38,BUS954,"(East of) Arbor Ct & Cumberland Ave - BUS954",,40.4593444144335,-86.9027739407285,0
3db49e73-2fd7-4a0a-a3ec-61e199893e53,BUS123W,"Nobb Hill Apts on Happy Hollow - BUS123W","Nobb Hill Apts on Happy Hollow BUS123W",40.4396087193256,-86.8994681179206,0
d7f884b1-729e-40d4-b250-a4a036e6ac36,BUS600E,"(East of) Catherwood Dr & Happy Hollow Rd -BUS600E","(East of) Catherwood Dr & Happy Hollow Rd BUS600E",40.4368943236407,-86.8981350599608,0
7a8dfe97-43f6-4bde-9a43-d8a565cc0ba2,BUS587,"Pike St & Salisbury St (NW Corner) - BUS587","Pike St & Salisbury St (NW Corner) BUS587",40.4654008427501,-86.9156552502903,0
29b0213c-165e-4210-bf86-496963157f72,BUS959,"(South of) Linda Ln & Soldiers Home Rd - BUS959",,40.4571356151781,-86.9028061272386,0
94ef1d2f-85c8-4b74-a708-f44ca28edee0,BUS124,"(Shelter South of) Quincy St & River Rd - BUS124","(Shelter South of) Quincy St & River Rd BUS124",40.427314,-86.901463,0
510fb36b-ba13-4bb2-948d-7b23d0b34bd2,BUS588,"LaGrange St & Salisbury St (NW Corner) - BUS588","LaGrange St & Salisbury St (NW Corner) BUS588",40.4627964176414,-86.9156431803491,0
acc5110f-0746-4fd1-b9c1-9f29f9363413,BUS144W,"Parkway Apts on Soldiers Home Rd(@Shelter)-BUS144W","Parkway Apts on Soldiers Home Rd(@Shelter) BUS144W",40.4544104906565,-86.9031856598369,0
9308cae0-57bf-44bc-9ff3-681eb802ccb0,BUS586,"Henderson St & Cumberland Ave (SW Corner) - BUS586","Henderson St & Cumberland Ave (SW Corner) BUS586",40.4603234207823,-86.9068643097201,0
cfeaa070-3fb3-4ffd-8f20-e09cd416ee28,BUS599W,"(South of) Laurel Dr & Happy Hollow Rd - BUS599W","(South of) Laurel Dr & Happy Hollow Rd BUS599W",40.4440853264383,-86.8996733069225,0
fd3a8a9f-1fe5-4666-af74-f6040c287d02,BUS602W,"River Rd & Robinson St (NW Corner) - BUS602W","River Rd & Robinson St (NW Corner) BUS602W",40.4283662395696,-86.9008239746585,0
0b44ab6b-eddc-4d51-b993-6bfa0912e514,BUS591S,"Barlow St & Cumberland Ave (SW Corner) - BUS591S","Barlow St & Cumberland Ave (SW Corner) BUS591S",40.460318056364,-86.909357423148,0
cae6f364-c10e-4dd3-80ec-76e1ba416f29,BUS590,"Wilshire Ave & Cumberland Ave (SW Corner) - BUS590","Wilshire Ave & Cumberland Ave (SW Corner) BUS590",40.4603140330502,-86.9130655773321,0
4a84152a-dfc1-4961-b5b2-6527ac336f91,BUS361NW,"Chippewa St & Happy Hollow Rd (NW Corner)-BUS361NW","Chippewa St & Happy Hollow Rd (NW Corner) BUS361NW",40.4499607056356,-86.9011243820861,0
0c5c0f8a-0078-4856-acef-fa75258d9417,BUS589,"(West of) Covington St & Cumberland Ave - BUS589","(West of) Covington St & Cumberland Ave BUS589",40.4603475606649,-86.9144335040112,0
cce00365-2eb5-42ad-a7dc-7fece11dfc5e,BUS267S,"Soldiers Home Rd & Cumberland (SW Corner) -BUS267S","Soldiers Home Rd & Cumberland (SW Corner) BUS267S",40.459060100261,-86.9018418730403,0
8873e5b2-936e-4ce8-b0bd-2b1ac352d169,BUS454,"Stonecrest Apartments (at Shelter) - BUS454","Stonecrest Apartments (at Shelter) BUS454",40.424688930791,-86.8762509153039,0
32e5fc47-929d-4264-a1df-4a33eb233c7b,BUS367E,"(East of) 9th St & Union St - BUS367E","(East of) 9th St & Union St BUS367E",40.4246875896864,-86.8866699568432,0
6bd6052b-6207-4b6b-b058-2ed4e4a5b485,BUS276,"Vinton St & Elmwood Ave  (SE Corner) - BUS276","Vinton St & Elmwood Ave  (SE Corner) BUS276",40.434251006499,-86.8636311211366,0
5ae9e75b-9e0f-4433-8c10-12fb018affac,BUS822,"(East of) 15th St & Union St - BUS822",,40.4246795430589,-86.8809461224643,0
bd40e24f-731c-4aa9-affd-bb7224d259c2,BUS209,"Underwood St & Elmwood Ave (SE Corner) - BUS209","Underwood St & Elmwood Ave (SE Corner) BUS209",40.4377901815051,-86.8621290839987,0
3df558e5-19a0-4c8f-8a70-392f76c505cf,BUS818,"8th St & Union St (SW Corner) - BUS818",,40.4246607675946,-86.8884120517023,0
c58c7df6-1ae8-46d2-b525-ed457ebf2144,BUS325SE,"Elmwood Ave & 21st St (SE Corner) - BUS325SE","Elmwood Ave & 21st St (SE Corner) BUS325SE",40.4285902040357,-86.8728887661033,0
de570530-fd95-4ff1-8031-55c8e30c6fa5,BUS829,"Prairie Ln & Elmwood Ave (SE Corner) - BUS829",,40.4361781737911,-86.8621156729529,0
d51fd750-b316-4a10-931a-d0556b5a11fc,BUS401,"14th St & Union St (SW Corner) - BUS401","14th St & Union St (SW Corner) BUS401",40.4246714964313,-86.8822818626333,0
ba7f11fb-891d-47fb-bf98-594fb74a0750,BUS410SE,"6th St & Brown St (SW Corner) - BUS410SE","6th St & Brown St (SW Corner) BUS410SE",40.4218109203465,-86.8906168276439,0
9de56803-2223-4fb5-905e-583afbf7a897,BUS134,"Howarth Center - BUS134","Howarth Center BUS134",40.4230152322659,-86.8771990762472,0
8fe3a30e-5ace-4d47-be2c-f912880fbffa,BUS441,"18th St & Union St (SW Corner) - BUS441","18th St & Union St (SW Corner) BUS441",40.4246728375359,-86.8773573265885,0
400a3363-fb32-4973-abf4-181d13746fa0,BUS821,"12th St & Union St (SW Corner) - BUS821",,40.4246728375359,-86.8841567268465,0
0a7a8cfa-07d8-4393-a660-af494d4bb4c7,BUS132,"Rainbow Dr & Elmwood Ave (SW Corner) - BUS132","Rainbow Dr & Elmwood Ave (SW Corner) BUS132",40.429232593133,-86.8717246873215,0
23efb9f9-64a6-42eb-ba77-c007a101b43e,BUS207,"Wayne Terrace & Elmwood Ave (SW Corner) - BUS207","BUS207",40.4305656510929,-86.8690532069834,0
cd7d8d7a-9a8c-48dc-bfad-2978afef540f,BUS938,"(West of) 27th St & Elmwood Ave - BUS938",,40.4320100207335,-86.8661711732251,0
5ed44014-0755-44ef-8931-7d33fb6522bd,BUS827,"(South of) Elmwood Ave & 27th St - BUS827",,40.4332036038163,-86.8652619043149,0
f9f91653-a957-4675-9b18-cadf3a761ac3,BUS825,"Cobblestone Ct & 21st St (SE Corner) - BUS825",,40.4263961569307,-86.8728552384886,0
6abb8064-7324-4196-85e2-7bfeab3542cf,BUS395SE,"Owen St & 4th St (SE Corner) - BUS395SE","Owen St & 4th St (SE Corner) BUS395SE",40.4049961510298,-86.8927237029507,0
ca7bf211-6b92-422c-b626-26431eaf9107,BUS121SE,"Murphy St & 4th St (SE Corner) - BUS121SE","Murphy St & 4th St (SE Corner) BUS121SE",40.4032580794846,-86.8927840526571,0
466f535e-7bc9-41f5-8a36-1b44bdfc04a2,BUS109,"(North of) Romig St & 4th St - BUS109","(North of) Romig St & 4th St BUS109",40.413992280602,-86.8929382796847,0
8ce88458-3997-4d7c-9e3f-8c748f52a20a,BUS240,"(South of) Fairmont St & 4th St - BUS240","(South of) Fairmont St & 4th St BUS240",40.40848972848,-86.8928967054425,0
8fdb19a5-6362-4d65-84f6-e427a028b5ee,BUS150,"Alabama & 4th St (SE Corner) - BUS150","Alabama & 4th St (SE Corner) BUS150",40.4163620124079,-86.8929798539269,0
70be4b40-971f-445a-80ec-782b25ab22db,BUS194,"Fountain St & 4th St (SE Corner) - BUS194","Fountain St & 4th St (SE Corner) BUS194",40.4126538582238,-86.8929248686388,0
c23b4c90-2df5-4ac5-94f7-eff9ad289f96,BUS910,"Valley Plaza on 4th St (South Driveway) - BUS910",,40.396281653421,-86.8952744838759,0
747a9550-fa04-4865-8faf-b0a15598670b,BUS652E,"Saw Mill Dr & 4th St (SE Corner) - BUS652E",,40.3978467224745,-86.8944684800189,0
db90478c-49a6-4656-bd1f-0ac654a3af82,BUS907,"Taylor Transmission on Old US 231 S - BUS907",,40.3952718016667,-86.8967094657844,0
22cc4647-bfab-4d00-95f3-522df313efe0,BUS653SW,"Windy Hill Dr & Old US 231S (SW Corner) - BUS653SW",,40.3941586848592,-86.9002969205556,0
2d94ac7e-3928-4aa9-833b-87622e6f2cac,BUS197,"Village Pantry on 4th St - BUS197","Village Pantry on 4th St BUS197",40.4063868764869,-86.8929195042205,0
2f371a23-6118-40d6-95a4-28340f4fa528,BUS199,"(North of) SR 25 & Old US 231S - BUS199","(North of) SR 25 & Old US 231S BUS199",40.3903365367852,-86.9039111974186,0
2e936c6a-3be5-4131-a5ff-2c6e5b833389,BUS258,"(South of) Elston Rd & Old US 231 S - BUS258","(South of) Elston Rd & Old US 231 S BUS258",40.3917634720662,-86.9031682254772,0
4f0a03d6-2839-4e62-badd-97d8168fd5fe,BUS228,"(North of) Beck Ln & Old US 231 S - BUS228","(North of) Beck Ln & Old US 231 S BUS228",40.3886065118674,-86.9043805840242,0
bf2cf140-2509-4139-86c0-487def928c3e,BUS264E,"(North of) Montefiore & 4th St - BUS264E","(North of) Montefiore & 4th St BUS264E",40.4016125441559,-86.8928269680039,0
a954731a-ddc2-4944-8768-2b63a5001fe8,BUS148,"Thise Ct & 4th St (SE Corner) - BUS148","Thise Ct & 4th St (SE Corner) BUS148",40.3989947080013,-86.8939883645766,0
debc94c3-0c3d-46da-a0c2-c017b9a2cdf3,BUS261,"(North of) Teal Rd & 4th St - BUS261","(North of) Teal Rd & 4th St BUS261",40.3963701663238,-86.8955681857805,0
6c91f3aa-a9ec-4fba-a20d-c66918a986a8,BUS212,"Claystone at the Crossing Apts (at Shelter)-BUS212",,40.3870012096763,-86.9121241219118,0
b9e80a2e-7418-428b-8691-4a459401ab99,BUS911,"Joseph St & Washington St (NW Corner) - BUS911",,40.4082402830267,-86.8966276584046,0
d6119cbd-6d2b-447b-a6de-9b40678b6c65,BUS912,"2nd St & Owen St (SW Corner) - BUS912",,40.405044430795,-86.8953844544521,0
ed9da889-ef13-4a2e-a44f-87d09630c411,BUS270,"(West of) Beck Ln & Elston Rd - BUS270","(West of) Beck Ln & Elston Rd BUS270",40.3931005533398,-86.9101674503188,0
a7f77a74-4ebe-47ed-9cb4-1b808b3cecd2,BUS648,"Alabama St & 3rd St (SW Corner) - BUS648","BUS648",40.4163499424666,-86.8943746026978,0
aeb10790-d6c5-499b-8315-5c3c0c73cd26,BUS254,"Anderson Furniture on Elston Rd - BUS254","Anderson Furniture on Elston Rd BUS254",40.3925842280736,-86.9038146378883,0
c715468c-9db4-49fc-a22d-4f98cc9b50fa,BUS356,"Romig St & 3rd St (SW Corner) - BUS356","Romig St & 3rd St (SW Corner) BUS356",40.413793797123,-86.8942834075858,0
96e38cbd-8846-438b-938d-43f246948e81,BUS159,"Old Romney Rd & SR 25 (NW Corner) - BUS159",,40.3891845279446,-86.9129274435596,0
c8b6ce36-3c24-4efa-82fe-0a9434f6ef78,BUS658,"CR 10 W & Twyckenham Blvd (SW Corner) - BUS658",,40.3846301367659,-86.906809324432,0
9a2447b5-3c6d-4189-b0f4-1efabce601b9,BUS264W,"Montefiore St & 4th St (NW Corner) - BUS264W","Montefiore St & 4th St (NW Corner) BUS264W",40.4018807650733,-86.8932628269948,0
06592fe0-a860-4278-af6e-70e2a18de65a,BUS652W,"Williams Ridge/Saw Mill Rd & 4th St - BUS652W",,40.3989249705628,-86.89415600265,0
1b30a64b-3295-4cca-87ae-8bd4688047ce,BUS649,"Fountain St & 3rd St (SW Corner) - BUS649",,40.4126793392109,-86.8942767020629,0
bc83f8b3-5946-4dcb-a3a5-ff23e5058d52,BUS310,"Kossuth St & 3rd St (NW Corner) - BUS310","Kossuth St & 3rd St (NW Corner) BUS310",40.4099662846307,-86.8943062063638,0
bfd6b362-c890-4a7e-affb-c6f6640709b7,BUS147,"Old Romney Rd & Elston Rd (NE Corner) - BUS147","Old Romney Rd & Elston Rd (NE Corner) BUS147",40.393396,-86.913419,0
635ebed2-74ca-4b21-ab07-72322566a000,BUS424,"(East of) Holloway Dr & Owen St - BUS424","(East of) Holloway Dr & Owen St BUS424",40.4050015154482,-86.8974430499937,0
93856890-e9b0-4a1a-a4d1-29d7e5090c34,BUS654,"Powder House Ln & Elston Rd (NE Corner) - BUS654",,40.3928765888737,-86.9072639588871,0
3b6d121e-57cc-4fae-b3eb-f4917d065ba8,BUS395SW,"Owen St & 4th St (SW Corner) - BUS395SW","Owen St & 4th St (SW Corner) BUS395SW",40.4049813988794,-86.8932225938572,0
336a3953-60c9-4624-beba-b3f1ff8a61ac,BUS653NE,"Windy Hill Dr & Old US 231S (NE Corner) - BUS653NE",,40.3944698211235,-86.9001815855611,0
a26afe1a-5a65-419e-848a-795f8f080ea5,BUS657,"(South of) Holloway Dr & Washington St - BUS657",,40.4067918900723,-86.8976831077148,0
eef4eaf9-f9ac-477d-994d-1189df8d6603,BUS211,"(East of) Old Romney Rd & Twyckenham Blvd - BUS211","(East of) Old Romney Rd & Twyckenham Blvd BUS211",40.3846743932172,-86.9107360786638,0
9b15b24f-d169-4405-b089-25e29217e5ab,BUS655,"Elston Point Apts on Elston Rd(NE Corner) - BUS655","Elston Point Apts on Elston Rd (NE Corner) - BUS655",40.393363,-86.91248,0
956d0491-987e-4c3c-bd0d-c49e1e80e930,BUS121NW,"Murphy St & 4th St (NW Corner) - BUS121NW","Murphy St & 4th St (NW Corner) BUS121NW",40.4035893323177,-86.8932628269948,0
711357bf-eea0-4157-b77e-2d19d0277497,BUS408,"(Northeast of) 21st St & Main St - BUS408","(Northeast of) 21st St & Main St BUS408",40.412350768587,-86.8729289992409,0
babd642b-51e7-4846-a29d-26ea672bfc7a,BUS444NE,"(North of) Jackson St & Main St - BUS444NE","(North of) Jackson St & Main St BUS444NE",40.4155922183747,-86.8765070662801,0
14cbd2be-9bc5-42c6-968b-caa8f93aaf27,BUS664NE,"(Northeast of) 28th St & Main St - BUS664NE",,40.4064941648539,-86.8655958393571,0
5701c421-31cc-4a92-8a43-a874e59f8b29,BUS305,"14th St & Columbia St (NE Corner) - BUS305","14th St & Columbia St (NE Corner) BUS305",40.4183481883018,-86.8811741102442,0
a806581d-a9b1-4261-8574-43eb20c429c4,BUS678,"Main @ House of Saigon (NE Corner) - BUS678",,40.4015334189852,-86.8585161482403,0
034bd000-6331-4d77-a827-0634fcd5e648,BUS242,"9th St & Columbia St (NE Corner) - BUS242","9th St & Columbia St (NE Corner) BUS242",40.4182636987128,-86.8867329887589,0
51241158-a539-4bd2-9733-a2786ab8a8a8,BUS677,"(North of) Kingsway Dr & SR 25/38 - BUS677",,40.3944389757179,-86.8486925571378,0
db27cc7f-c0bd-4d4d-969b-073519f5cbdd,BUS482SE,"Scott St & Main St (Southeast Corner) - BUS482SE","Scott St & Main St (Southeast Corner) BUS482SE",40.4138139136919,-86.874625496544,0
c0a60a3b-e274-4c62-9760-024fa0213cf1,BUS506,"(Southeast of) McCarty Ln & Main St - BUS506","(Southeast of) McCarty Ln & Main St BUS506",40.4027109088129,-86.8602609253085,0
94554fc2-ee8f-4a15-b35a-08367d9f0ce9,BUS462,"SR25/38 @ Hollywood Video (Laf Marketplace)-BUS462",,40.3978212414874,-86.8534803005147,0
0953a9a9-b7ce-453d-9688-e150ea83b6b9,BUS663NE,"25th St & Main St (NE Corner) - BUS663NE",,40.4080350940248,-86.8677053968731,0
d1433e1a-9e6d-490c-81d8-c074b44c39d6,BUS946,"SR 25/38 @ Golden Lion - BUS946",,40.3996277093665,-86.8558674666803,0
0f7007c4-ecdc-4ca9-90bd-5fd6c9c7dfa4,BUS531NE,"(Northeast of) Earl Ave & Main St - BUS531NE","(Northeast of) Earl Ave & Main St BUS531NE",40.4051584246849,-86.8636633076467,0
edda71eb-cdb2-474d-8769-cea82d19a4a1,BUS309,"12th St & Columbia St (NE Corner) - BUS309","12th St & Columbia St (NE Corner) BUS309",40.4183173428963,-86.8838227918042,0
977344e8-469d-415d-b623-4cdaf9ed6376,BUS191,"Frozen Custard on Main St (at Shelter) - BUS191","Frozen Custard on Main St (at Shelter) BUS191",40.4110431916143,-86.871472559659,0
771c5bec-11b1-4ab6-b3b1-68d1dd5d8eb8,BUS216E,"(Northeast of) 24th St & Main St - BUS216E","(Northeast of) 24th St & Main St BUS216E",40.409679288249,-86.8699262660698,0
484a723a-010a-43b8-bfcf-2bea29161826,BUS114W,"Country Squire Apts on Morehouse - BUS114W","Country Squire Apts on Morehouse BUS114W",40.4691881221049,-86.9387973510502,0
333d8ff1-e4da-4585-8b51-a670a99ee994,BUS944S,"West View Apts on Kalberer Rd (South) - BUS944S",,40.4677491168826,-86.9340257009283,0
96dce478-7a5d-4bbd-9c5e-152b6e265e0a,BUS113NW,"Ellison Dr & Morehouse Rd - BUS113NW","Ellison Dr & Morehouse Rd BUS113NW",40.4707961065052,-86.9389462136594,0
d3cee03a-5a5c-4d53-b2b3-866060a053a7,BUS112NE,"Morehouse Rd & Mason Dixon Dr (NE Corner)-BUS112NE","Morehouse Rd & Mason Dixon Dr (NE Corner) BUS112NE",40.4777966724513,-86.9388389252924,0
e21ff1a4-d2af-4d0c-b11b-d49dedc9cce6,BUS431,"(South of) Cherry Ln & Northwestern Ave - BUS431","(South of) Cherry Ln & Northwestern Ave BUS431",40.4387973510502,-86.9173141966649,0
d33b7dc2-4c15-4797-b3dd-10edb33e6964,BUS110NE,"Mason Dixon Dr & Shining Armor(NE Corner)-BUS110NE","Mason Dixon Dr & Shining Armor(NE Corner) BUS110NE",40.4793966102241,-86.9345675071816,0
1c1188b1-e103-4faf-a203-7c68d2896f33,BUS626NW,"Montgomery St & Yeager Rd (NW Corner) - BUS626NW","Montgomery St & Yeager Rd (NW Corner) BUS626NW",40.458653745571,-86.9245735957964,0
6298f996-e800-4578-9a43-785885804340,BUS945SW,"Kent Ave & Kalberer Rd (SW Corner) - BUS945SW",,40.467770574556,-86.9318437237646,0
b782979e-6371-4499-bfcb-ef1b325cd876,BUS284NW,"Meridian St & Northwestern (NW Corner) - BUS284NW","Meridian St & Northwestern (NW Corner) BUS284NW",40.4340324064513,-86.9152381667637,0
a64cfc3e-4e89-4f84-bdbe-d67468933e6a,BUS129,"Peppermill Apts on Yeager Rd (NW Corner) - BUS129","Peppermill Apts on Yeager Rd (NW Corner) BUS129",40.4619716383202,-86.9245722546919,0
681e8f18-58e3-4c6e-99c8-dcace53a1b1b,BUS631W,"Abnaki Dr & Morehouse Rd - BUS631W","Abnaki Dr & Morehouse Rd BUS631W",40.4744787797021,-86.9389851056925,0
6a4771d8-c0aa-4e4b-bd91-b761605e5fbd,BUS115S,"(East of) Morehouse Rd & Kalberer Rd - BUS115S","(East of) Morehouse Rd & Kalberer Rd BUS115S",40.4677464346734,-86.9387410246575,0
754380ef-fd92-42b5-8a7c-9b33a4cb51c4,BUS630,"Military Ct & Mason Dixon Dr (NE Corner) - BUS630","Military Ct & Mason Dixon Dr (NE Corner) BUS630",40.4778194712293,-86.936568435226,0
56af5f51-efd1-4982-a7c8-056463139899,BUS476,"Carrolton Blvd & Northwestern (NW Corner) - BUS476","Carrolton Blvd & Northwestern (NW Corner) BUS476",40.4418590928232,-86.9190214228047,0
eecbea9e-8ba8-4bb8-b0c5-311c7c81b671,BUS101SW,"Mayfair Village Apts on Sycamore Ln - BUS101SW","Mayfair Village Apts on Sycamore Ln BUS101SW",40.4520648987332,-86.9217492295354,0
c63e7703-a862-4f64-b0b2-6a2d61cfbf41,BUS118NW,"McClure Ave & Yeager Rd (NW Corner) - BUS118NW","McClure Ave & Yeager Rd (NW Corner) BUS118NW",40.4650400856161,-86.9246285810845,0
3732b656-9f08-4497-ba93-fa7c6060fde4,BUS100W,"Beau Jardin Apts on Yeager (@ Shelter) - BUS100W ","Beau Jardin Apts on Yeager Rd (Shelter) BUS100W",40.4545620354749,-86.9245722546919,0
a4a96dbf-e552-4e57-a298-2ebc72eb271d,BUS375NE,"(East of) Northwestern & Lindberg - BUS375NE","(East of) Northwestern & Lindberg BUS375NE",40.4460084704166,-86.9210652661959,0
9d472299-ccbe-4a1f-b141-feb9978f0c3c,BUS375SW,"(Southwest of) Northwestern & Lindberg - BUS375SW","(Southwest of) Northwestern & Lindberg Rd BUS375SW",40.4458126691468,-86.921597684717,0
6ffbd617-0cd3-4940-9ef0-793dbae0649b,BUS117SW,"Yeager Rd & Kalberer Rd (SW Corner) - BUS117SW","Yeager Rd & Kalberer Rd (SW Corner) BUS117SW",40.4678631107726,-86.92465942649,0
4825a37c-2a45-4c2e-9852-23e69ce7eaa2,BUS218NW,"Yeager Rd & Cumberland Ave (NW Corner) - BUS218NW","Yeager Rd & Cumberland Ave (NW Corner) BUS218NW",40.4607659852961,-86.9246098056203,0
6c9131d8-e2bf-4178-a4c3-be5a30993813,BUS102NW,"Carlisle Rd & Lindberg Rd (NW Corner) - BUS102NW","Carlisle Rd & Lindberg Rd (NW Corner) BUS102NW",40.4459427562918,-86.9192735504671,0
4e3e7918-816d-4a3e-8ed1-e8b911a54510,BUS623NW,"Windsor Dr & Carlisle Rd (NW Corner) - BUS623NW","Windsor Dr & Carlisle Rd (NW Corner) BUS623NW",40.4479839174738,-86.9195645701626,0
49262369-f1a0-4505-a8d1-3d66fa089119,BUS632NW,"Garden St & Northwestern Ave (NW Corner) -BUS632NW","Garden St & Northwestern Ave (NW Corner) BUS632NW",40.4427482451646,-86.9194881272011,0
25b12556-0ac1-4f07-acbe-d6529ca6feca,BUS104S,"(East of) Anthrop Dr & Yeager (@Shelter) - BUS104S","(East of) Anthrop Dr & Yeager (at Shelter) BUS104S",40.4519495637387,-86.924191380989,0
8d22024d-4644-45b8-ac20-d68a957fb257,BUS624W,"(West of) Carlisle Rd & Sycamore Ln - BUS624W","(West of) Carlisle Rd & Sycamore Ln BUS624W",40.4504582554375,-86.9194881272011,0
ed537d2e-59bb-4644-ba7b-020cc81b5d63,BUS634NE,"Stadium Ave & Grant St (NE Corner) - BUS634NE","Stadium Ave & Grant St (NE Corner) BUS634NE",40.4308969039259,-86.9103404528106,0
3b96fd68-3c82-4bfb-a418-9ee2e5423609,BUS133S,"(South) Cumberland Pointe on Cumberland - BUS133S","(South) Cumberland Pointe on Cumberland BUS133S",40.4604172981034,-86.9193245124414,0
c4db6788-46b1-4eae-bcdf-73004fd72a56,BUS136,"Browning St & Cumberland Ave (SW Corner) - BUS136","Browning St & Cumberland Ave (SW Corner) BUS136",40.4604307091493,-86.9213857901922,0
71bfebac-1c91-481a-b77f-f1b0b0063f0d,BUS293,"(South of) Navajo St & Salisbury St - BUS293","(South of) Navajo St & Salisbury St BUS293",40.451639768579,-86.9158389816188,0
b442a6bb-55c1-4984-8b6e-593c1126efd7,BUS458,"Tapawingo Dr & State St (SW Corner) - BUS458","Tapawingo Dr & State St (SW Corner) BUS458",40.4196356487057,-86.900539660486,0
1dacae77-c2ee-4c26-9abb-e673276af29c,BUS644,"(South of) River Market on State St - BUS644",,40.421565498207,-86.90325673838,0
5834f950-adc5-4e24-9b1b-60738dcfcf00,BUS138SW,"Salisbury St & Cumberland Ave (SW Corner)-BUS138SW","Salisbury St & Cumberland Ave (SW Corner) BUS138SW",40.4603609717107,-86.9157263288335,0
88f1e87a-0053-4fd9-ace1-7dfafb0eaec9,BUS333NW,"Meridian St & Salisbury St (NW Corner) - BUS333NW","Meridian St & Salisbury St (NW Corner) BUS333NW",40.4352179429065,-86.9058812800575,0
7c93ce0c-d4ee-412d-bd88-82f59d98489b,BUS130,"Westminster Village S & Salisbury (NW) - BUS130","Westminster Village S & Salisbury (NW) BUS130",40.4569331083854,-86.9157102355784,0
b18b555a-eb93-4cf3-9446-2560bf3abc81,BUS337S,"(South of) Grant St & Salisbury St - BUS337S","(South of) Grant St & Salisbury St BUS337S",40.4415533209773,-86.9105268663482,0
de66e288-c5b8-4443-a342-c3f67b5d87a0,BUS924,"(South of) Riley Ln & Salisbury St - BUS924",,40.4432189728748,-86.9128845282128,0
01e9a727-097f-4d7a-b149-c84ae0eeb414,BUS149,"Kent Ave & Salisbury St (SW Corner) - BUS149","Kent Ave & Salisbury St (SW Corner) BUS149",40.4547269913392,-86.9158067951087,0
d3f7917b-2544-4ab6-904b-f72bbaa28ac1,BUS636NW,"Dehart St & Salisbury St (NW Corner) - BUS636NW","Dehart St & Salisbury St (NW Corner) BUS636NW",40.4327087362235,-86.9058021548869,0
dc6cffc8-68f6-4c8b-bce8-b31bbb52ffba,BUS365NW,"Lindberg Rd & Salisbury St (NW Corner) - BUS365NW","Lindberg Rd & Salisbury St (NW Corner) BUS365NW",40.4457979169964,-86.9142497726828,0
1fd57450-5207-4c20-bf4b-209b3b800ec5,BUS218SW,"Yeager Rd & Cumberland Ave (SW Corner)  - BUS218SW","Yeager Rd & Cumberland Ave (SW Corner)  BUS218SW",40.4605071521108,-86.9246057823065,0
61b597c7-d429-4df6-a09e-e7c96476534d,BUS455S,"(East of) Salem Courthouse on Cumberland - BUS455S","(East of) Salem Courthouse on Cumberland BUS455S",40.4604991054833,-86.9274006442666,0
38d9e2b6-457b-4214-9124-42c51dcc9338,BUS224,"Leslie Ave & Salisbury St (NW Corner) - BUS224","Leslie Ave & Salisbury St (NW Corner) BUS224",40.4367454610315,-86.9061012212098,0
e52c8d6d-0f98-415c-bfd5-a8038265c4c8,BUS637NW,"Rockland Dr & Salisbury St (NW Corner) - BUS637NW","Rockland Dr & Salisbury St (NW Corner) BUS637NW",40.4389073216264,-86.9076206927073,0
63f1d0b8-1fd6-4829-b07a-833a3aa9fc01,BUS530N,"McDonalds on Stadium - BUS530N","McDonalds on Stadium BUS530N",40.431419934715,-86.9131514080257,0
2a8b75cf-f2a9-4694-89f8-3e1de327c2bd,BUS635NE,"Vine St & Stadium Ave (NE Corner) - BUS635NE","Vine St & Stadium Ave (NE Corner) BUS635NE",40.4308620352067,-86.908106172568,0
36e27829-9d1c-4ce5-b8a4-99105d03a36f,BUS511SE,"(East of) Kent Ave & Cumberland Ave - BUS511SE","(East of) Kent Ave & Cumberland Ave BUS511SE",40.4604642367639,-86.9300774890231,0
a7c45749-d7fb-477a-80fc-4273e1416d91,BUS131W,"Westminster Village N & Salisbury (NW) - BUS131W","Westminster Village N & Salisbury (NW) BUS131W",40.4586121713288,-86.9156941423234,0
70e21ad3-c436-4d69-aad4-6ab2656af9a7,BUS291NW,"Stadium Ave & Salisbury St (NW Corner) - BUS291NW","Stadium Ave & Salisbury St (NW Corner) BUS291NW",40.4308580118929,-86.905743146285,0
73431f94-818b-4b39-b75a-071cdb00eb5c,BUS633NW,"Sycamore Ln & Salisbury St (NW Corner) - BUS633NW","Sycamore Ln & Salisbury St (NW Corner) BUS633NW",40.4480509727032,-86.9158242294684,0
13000331-0c95-4c21-a546-f069166c76d7,BUS838,"Speedway on Elmwood Ave (NE Corner) - BUS838",,40.4270291582959,-86.8763528392525,0
5a104064-aa7a-4220-a5b3-11afd3b2ae26,BUS840,"(West of) 15th St & Salem St - BUS840",,40.4256679371397,-86.8811727691396,0
52d16320-9834-4f6c-8cca-8541f3e92ca2,BUS845,"7th & Salem St (NE Corner) - BUS845",,40.4257577911471,-86.8894286089795,0
f35e590c-ced8-48e4-8e71-e64db7668961,BUS325NE,"21st St & Elmwood Ave (NE Corner) - BUS325NE","21st St & Elmwood Ave (NE Corner) BUS325NE",40.4286773758338,-86.8731395526612,0
487b34a4-c5a7-4686-9ac2-246658208996,BUS830,"(South of) 27th St & Underwood St - BUS830",,40.4377311729033,-86.8661751965389,0
88d8c579-8c69-4079-be5d-d7e824ade326,BUS839,"(North of) 18th St & Salem St - BUS839",,40.425894583815,-86.8774082885628,0
1699da90-1157-48da-a86e-2b822d2bf7af,BUS832,"Melbourne Rd & Vinton St (NE Corner) - BUS832",,40.4349322876294,-86.8671568850968,0
de3ee9ed-2b8d-4f5e-925c-e953cb9ff6b3,BUS380NE,"Salem St & 9th St (NE Corner) - BUS380NE","Salem St & 9th St (NE Corner) BUS380NE",40.4257443801012,-86.8868898979956,0
25c95112-051d-426e-a4cd-3bb12d5b32ad,BUS519E,"Fannon & Salem St (NE Corner) - BUS519E","Fannon & Salem St (NE Corner) BUS519E",40.4257725432976,-86.8912833566238,0
f82fc872-0774-4bf0-a2fa-536ea523d2db,BUS835,"Market Square Shopping Center - BUS835",,40.4304248351112,-86.8706343692919,0
b6a8bfa7-df18-451d-917f-7ce6e81f7d16,BUS312,"Greenbush St & Melbourne Rd (at Shelter) - BUS312","Greenbush St & Melbourne Rd (at Shelter) BUS312",40.4321964342711,-86.8680071454052,0
8287f90c-1656-4ec7-b227-84226cc8dab0,BUS851,"Meharry St & 20th St (SE Corner) - BUS851",,40.4338325818677,-86.8744659050981,0
e8b6e826-1f6a-4dae-b2cc-fe2d4b71ed4b,BUS274,"Underwood St & 20th St (SE Corner) - BUS274","Underwood St & 20th St (SE Corner) BUS274",40.4377137385436,-86.8744940682944,0
fcc11416-053c-4996-b896-8202ccf46b6d,BUS852,"Perrine St & 20th St (SE Corner) - BUS852",,40.435801323402,-86.8744846805623,0
176c2e51-2aee-48a8-a9e5-267db9de97e3,BUS255,"(Northeast Corner) 9th St & Ferry St - BUS255","(Northeast Corner) 9th St & Ferry St BUS255",40.4200969886838,-86.8867638341644,0
aeea1767-a842-436c-8c26-82833c7e70e1,BUS854,"Albany St & 24th St (SE Corner) - BUS854",,40.4397857451311,-86.8696419518973,0
c560208d-b013-450f-b2f1-a0fc38829e5a,BUS849,"Howell St & 17th St (SE Corner) - BUS849",,40.4300506669313,-86.8789438533153,0
b4e2364f-0285-433b-83ee-3195c5303d79,BUS488,"17th St & Tippecanoe St (SW Corner) - BUS488","17th St & Tippecanoe St (SW Corner) BUS488",40.4264672354738,-86.8789089845961,0
cec8f159-52d2-4e9f-9c14-54941e2260d0,BUS452,"Greenbush St & 17 St  (SE Corner) - BUS452","Greenbush St & 17 St  (SE Corner) BUS452",40.4320609827078,-86.8790015208126,0
8e4c27e6-4adb-4c37-a683-ff39e8031320,BUS789SW,"12th St & Hartford St (SW Corner)  - BUS789SW",,40.4276970283805,-86.8842224409713,0
145dd0dd-644b-439b-ac12-8737c5cbb34a,BUS451,"Riggs Community Health Clinic (@ Shelter) - BUS451","Riggs Community Health Clinic (at Shelter) BUS451",40.4285526531072,-86.878922395642,0
2b620850-401d-4c58-82e5-aea7059d5a5c,BUS220SE,"9th St & Brown St (SE Corner) - BUS220SE","9th St & Brown St (SE Corner) BUS220SE",40.4217465473263,-86.8867557875368,0
4d64111d-ec93-4823-937b-10b487e8a8d8,BUS847,"(East of) 14th St & Tippecanoe - BUS847",,40.4264484600096,-86.8816716600461,0
0c77d5c5-779c-4f19-93d2-b8acbb1793a2,BUS783SE,"9th St & Cincinnati St (SE Corner) - BUS783SE",,40.4226732505961,-86.8867557875368,0
8b2d29b2-24f0-42f0-98b9-7a4f762fab1e,BUS546W,"14th St & Hartford St (at Shelter) - BUS546W","14th St & Hartford St (at Shelter) BUS546W",40.4276635007658,-86.8823904921049,0
41e4959f-1846-46b8-bc7e-14028e7ac698,BUS367SE,"Union St & 9th St (SE Corner) - BUS367SE","Union St & 9th St (SE Corner) BUS367SE",40.4246258988753,-86.8868349127075,0
384aeb1d-0f3b-40a7-ab65-e15a06037b71,BUS353,"(North of) 24th St & Underwood St - BUS353","(North of) 24th St & Underwood St BUS353",40.4378089569693,-86.869629881956,0
f4fc928e-0e6c-47db-978d-e46ac57fac57,BUS850,"Wabash Center on 20th St (at Shelter)  - BUS850",,40.432209845317,-86.8744471296339,0
bacee3f1-4b77-4f9f-81ff-79d22bce1a99,BUS937,"22nd St & Underwood St (SW Corner) - BUS937",,40.4377271495895,-86.8713813645471,0
ff7d5883-7063-4be2-9cfa-a30b0aa1eed4,BUS645,"Northwestern Ave & State St (NW Corner) - BUS645",,40.4241444423285,-86.908044481757,0
da6dcd2a-cb28-465d-a524-ccf2c7233814,BUS580E,"(South of) River Rd & Howard Ave - BUS580E","(South of) River Rd & Howard Ave BUS580E",40.4234135403284,-86.9030756892607,0
3b9c4777-7b7e-453b-8dd4-4fb96bfebb37,BUS355,"Main St & 7th (SE Corner) - BUS355","Main St & 7th (SE Corner) BUS355",40.4190750669882,-86.8886226051225,0
31975d90-301c-4a54-ba69-62a30da956b7,BUS509SE,"Tower Dr & Jischke Dr (SE Corner) - BUS509SE","Tower Dr & Jischke Dr (SE Corner) BUS509SE",40.4329031963887,-86.9213965190289,0
96ae41bc-240e-446f-98c9-9ccf1f4be1a5,BUS425N,"Wabash Landing on Brown St - BUS425N","Wabash Landing on Brown St BUS425N",40.4220536602768,-86.900877618842,0
cc282874-0513-466e-9e41-41066e53a3e1,BUS540,"China Buffet on Howard Ave - BUS540","China Buffet on Howard Ave BUS540",40.4226330174585,-86.9026840867212,0
b8bc643f-a212-4d6e-b379-1f81f9bc9950,BUS229SE,"Tapawingo Dr & Brown St (SE Corner) - BUS229SE","Tapawingo Dr & Brown St (SE Corner) BUS229SE",40.4218176258694,-86.8992186724674,0
9964b06d-a15a-40e1-a909-adfab76f19ba,BUS400E,"Hilton Inn on Tapawingo Dr (NE Corner) - BUS400E","Hilton Inn on Tapawingo Dr (NE Corner) BUS400E",40.4202673089663,-86.8996692836087,0
7a9a7847-4da1-48a0-bf20-965685fdaf90,BUS466W,"JR Hiatt Dr & 22nd St (NW Corner) - BUS466W","JR Hiatt Dr & 22nd St (NW Corner) BUS466W",40.3976106880671,-86.8717608971453,0
44ed84a0-4d44-44c5-aba9-56ffb3f99ac1,BUS382N,"(West of) US 52 & Union St - BUS382N","(West of) US 52 & Union St BUS382N",40.4249544694993,-86.8592752134368,0
db27f404-18b5-4fb3-be7e-b939fdaa28f2,BUS507W,"Portledge Commons Apts on Earl Ave - BUS507W","Portledge Commons Apts on Earl Ave BUS507W",40.4220482958584,-86.860636434593,0
02c34904-0880-4de3-9edf-da4d8e2781fe,BUS459NW,"Cason St & Earl Ave (NW Corner) - BUS459NW","Cason St & Earl Ave (NW Corner) BUS459NW",40.4205395531976,-86.8606029069783,0
22aee01a-4cff-4437-a6a4-9695aee6c838,BUS549N,"Fowler House Apts on Ferry St - BUS549N","Fowler House Apts on Ferry St BUS549N",40.4200527322324,-86.8928752477691,0
16cca49d-925d-4cf9-9e9f-e935f4dcfa99,BUS370,"Park Ave & Wallace Ave (SE Corner) - BUS370","Park Ave & Wallace Ave (SE Corner) BUS370",40.4130763061688,-86.8687434118237,0
1837047a-f6f0-40d6-ba4b-29ff09e6c66e,BUS536,"Park Ave & Ruger St (SE Corner) - BUS536","Park Ave & Ruger St (SE Corner) BUS536",40.4145756610975,-86.8688131492623,0
9c760a5a-4d7c-485b-a347-f3a81f18feaa,BUS374NW,"OFerrall St & Earl Ave (NW Corner) - BUS374NW","OFerrall St & Earl Ave (NW Corner) BUS374NW",40.4162198553216,-86.8607920027251,0
bc2acd87-f238-4e79-9004-c6b8a635b3e9,BUS226NW,"Ruger St & Earl Ave (NW Corner) - BUS226NW","Ruger St & Earl Ave (NW Corner) BUS226NW",40.4146990427195,-86.8607075131361,0
b83b6836-c977-4eab-844a-4f9c42948e7b,BUS196W,"(South of) Earl Ave & Union St - BUS196W","(South of) Earl Ave & Union St BUS196W",40.4243469491212,-86.8606780088352,0
7e3a4122-f71c-44c0-8703-901a64140749,BUS796N,"(West of) Erie St & Ferry St - BUS796N",,40.4200661432783,-86.884294860619,0
87354ea7-c531-4e66-8554-9d84cf3abcd3,BUS277N,"(East of) Frontage Rd & SR 26 - BUS277N","(East of) Frontage Rd & SR 26 BUS277N",40.4175569365952,-86.8150536307725,0
0755cad4-a4d9-414d-872f-eaf579144685,BUS552SE,"36th St & Union St (SE Corner) - BUS552SE","36th St & Union St (SE Corner) BUS552SE",40.4247707381708,-86.8503541857215,0
5cc8a636-987b-482d-9a4c-63ee4a0c4aa5,BUS386,"(East of) Red Cloud Tr & SR 26 - BUS386","(East of) Red Cloud Tr & SR 26 BUS386",40.417798335421,-86.8245915665979,0
837deb99-ca94-419f-af77-10c40742244d,BUS406,"(West of) Brinker St & SR 26 - BUS406",,40.4178519796045,-86.8295093971199,0
03930798-082a-400b-b196-86896294c1ed,BUS487W,"Ferry St & Earl Ave (NW Corner) - BUS487W","Ferry St & Earl Ave (NW Corner) BUS487W",40.4191166412304,-86.8607303119141,0
389b9992-097b-415b-829a-cad52347d427,BUS793,"RRX on Union St (NE Corner) - BUS793",,40.4249464228717,-86.854750326559,0
edf50945-d507-4671-8ecf-5a3e714414b8,BUS813E,"(North of) Coleman Ct & 36th St - BUS813E",,40.4221180332969,-86.8507940680262,0
5beb4315-5da8-420e-b9ad-4563b9bba715,BUS475E,"(North of) 36th St & SR 26 - BUS475E","(North of) 36th St & SR 26 BUS475E",40.4181269060449,-86.8498459070829,0
e0cacf45-4751-42ed-bcc6-c4a2b7b1e221,BUS814,"Brice St & Earl Ave (NW Corner) - BUS814",,40.4116574175154,-86.8605962014554,0
41520476-dc20-4ef7-a092-cae3f709d6ea,BUS542,"25th St & Ferry St (NW Corner @ Shelter) - BUS542","25th St & Ferry St (NW Corner @ Shelter) BUS542",40.4190200817001,-86.8688279014127,0
dd85eb18-cdd8-4289-a9a1-18e8ebeed3e9,BUS383W,"(West of) 26th St & Kossuth St - BUS383W","(West of) 26th St & Kossuth St BUS383W",40.4101674503188,-86.8674827735116,0
8f24d066-2ccf-4771-89ca-a42cc0884048,BUS523NE,"30th St & Kossuth St (NE Corner) - BUS523NE","30th St & Kossuth St (NE Corner) BUS523NE",40.4101996368289,-86.8626856424025,0
22c95ccf-59b8-4ad4-8c21-a8eab47c91ea,BUS385SW,"26th St & Ruger St (SW Corner) - BUS385SW","26th St & Ruger St (SW Corner) BUS385SW",40.4145582267379,-86.8673929195042,0
17173de8-9a0b-4c5a-9998-e89ac1044343,BUS532NE,"8th St & Ferry St (NE Corner) - BUS532NE","8th St & Ferry St (NE Corner) BUS532NE",40.4200513911278,-86.8882511191518,0
766c203f-c828-41d1-921d-860c438f7ee5,BUS545N,"23rd St & Ferry St (NE Corner) - BUS545N","23rd St & Ferry St (NE Corner) BUS545N",40.4190214228047,-86.8711882454865,0
b0531acb-37b2-4340-b3f5-c4ca77360f36,BUS794N,"(West of) 10th St & Ferry St (North) - BUS794N",,40.4200580966507,-86.8863346806964,0
294fb19b-3794-4d3c-90a3-6daa6383e7ea,BUS202NW,"Kossuth St & Earl Ave (NW Corner) - BUS202NW","Kossuth St & Earl Ave (NW Corner) BUS202NW",40.4102076834564,-86.8605532861086,0
b8ec04a3-f1ed-4a8e-a453-1b16e152d974,BUS369,"26th St & South St (SE Corner) - BUS369","26th St & South St (SE Corner) BUS369",40.4174550126466,-86.8674291293281,0
9b56e500-b079-4710-a63f-bab2a698495b,BUS533N,"(West of) 28th St & Kossuth St - BUS533N","(West of) 28th St & Kossuth St BUS533N",40.4101835435738,-86.8651371815882,0
436725f8-363b-4e5c-bd54-32961431f4bf,BUS534N,"6th St & Ferry St (NE Corner) - BUS534N","6th St & Ferry St (NE Corner) BUS534N",40.4200782132195,-86.8906356031081,0
cbfa803a-7a8b-48b3-9181-a9929a557934,BUS797N,"(West of) Perrin Ave & Ferry St - BUS797N",,40.4200822365333,-86.8818848956755,0
7375ecb0-2ec3-4735-bbcc-137d45d89268,BUS193W,"(West of) Creasy Ln & SR 26 - BUS193W","(West of) Creasy Ln & SR 26 BUS193W",40.4177540789696,-86.8392565452609,0
8826fdaa-85fb-4364-97cd-c921205f59ae,BUS806,"(West of) Eastland Dr & SR 26 - BUS806",,40.4177943121072,-86.8338532348784,0
ad3322ca-050b-41e7-b269-57b7d998842b,BUS811,"Target on SR 26 (@ 5th/3rd Bank) - BUS811","BUS811",40.4177031169953,-86.8479978649615,0
00ebc55f-0872-4f01-ba50-5631e6f3304d,BUS548NE,"21st St & Ferry St (NE Corner) - BUS548NE","21st St & Ferry St (NE Corner) BUS548NE",40.4189798485625,-86.8734453245071,0
64dbfd3c-73d6-4d2f-91c9-99339459dbc1,BUS280N,"(West of) 19th St & Ferry St - BUS280N","(West of) 19th St & Ferry St BUS280N",40.4189315687973,-86.8760323152561,0
47e9f614-a551-4a67-b333-166425ca7c95,BUS377,"International Sq (@ Nanking Restaurant) - BUS377","International Sq (@ Nanking Restaurant) BUS377",40.4177379857146,-86.8379127584644,0
33ba5876-2b8f-4e08-8548-2725f14e011c,BUS299,"Meijer Ct & Meijer Dr (NE Corner) - BUS299","Meijer Ct & Meijer Dr (SN Corner) BUS299",40.4167898247713,-86.8140719422145,0
878dbe30-8586-407e-ad21-394f14f224a0,BUS302N,"(West of) Executive Dr & SR 26 - BUS302N","(West of) Executive Dr & SR 26 BUS302N",40.4177125047274,-86.843884697192,0
5a7d6659-b484-4058-a74f-1266ca478832,BUS798NE,"Asher St & Ferry St (NE Corner) - BUS798NE",,40.4193298768598,-86.8789398300016,0
06c0c737-c531-4dee-af70-b8f8385ecaf5,BUS716SE,"(North of) Haggerty Ln & SR 25/38 - BUS716SE",,40.3865573040579,-86.8335394164049,0
c7fea086-98b3-4b08-9130-54b1567ba297,BUS168,"St. Francis Way & Hatke Dr (SE Corner) - BUS168",,40.3922650451818,-86.8326529462727,0
9a2d08e4-4f16-4237-b90d-95d0da5164c0,BUS703S,"(East of) Poland Hill & Twyckenham - BUS703S",,40.3834915389712,-86.8947809573877,0
0225cf7b-3442-4bc6-94e3-140ebdd045cd,BUS125,"Bayley Dr at Crosswinds Apts (East side) - BUS125",,40.3904438251521,-86.8339953919646,0
c130531f-38b1-4f0b-99cf-0e97b5630e93,BUS340S,"(East of) 9th St & Twyckenham Blvd - BUS340S","(East of) 9th St & Twyckenham Blvd BUS340S",40.381831251492,-86.8854200473678,0
c3a8e514-6396-47cb-9c91-5705fef43c78,BUS704S,"Quarry Dr & Twyckenham (SW Corner) - BUS704S",,40.383466057984,-86.8924085433727,0
ec555bbb-8eba-4ac7-bdf1-bfa5a910054b,BUS700,"Limestone &  Beck Ln (SW Corner) - BUS700",,40.3878903620178,-86.8969240425184,0
60646034-4464-4966-93a4-af30a6204088,BUS705S,"(East of) Dover Ln & Twyckenham Blvd - BUS705S",,40.3821973730443,-86.8874048821571,0
b70a0263-a61b-4b6f-b380-25ae5dc7301a,BUS354E,"(East of) Brady Ln & 18th St - BUS354E","(East of) Brady Ln & 18th St BUS354E",40.381717257602,-86.8755575642322,0
3041a5e2-7665-4f20-86d4-b8e6932cb46c,BUS336,"Pay Less at Beck Ln. (SW Corner) - BUS336","Pay Less at Beck Ln. (SW Corner) BUS336",40.3878554932985,-86.9002620518364,0
63392c5b-e107-453b-9526-a638d2209999,BUS237N,"Pay Less Access Road - BUS237N","Pay Less Access Road BUS237N",40.386466,-86.903305,0
041bce6b-f2e6-46dd-8a92-1b0b7e65bb42,BUS707S,"Pipers Glen Dr & Brady Ln (SW Corner) - BUS707S",,40.3816730011507,-86.8724904580409,0
a8356332-5fd5-4865-b608-9a2d96ec2fb4,BUS701,"Poland Hill Rd & Beck Ln (SW Corner) - BUS701",,40.387886338704,-86.8953160581181,0
15198d52-ba6c-4365-84bd-c6cd862d5d1c,BUS164,"St. Elizabeth on St. Francis Way (North) - BUS164","St. Elizabeth on St. Francis Way (North side) - BUS164",40.3924608464516,-86.8343279859023,0
4f3f20c5-caf2-4eb5-86a5-0e11c7628a03,BUS702,"Poland Hill Rd & Matterhorn (NW Corner) - BUS702",,40.3848943343696,-86.8951846298685,0
5edafffa-c084-4f9e-a8df-4dce411fb16e,BUS713N,"Bayley Dr & Windemere Dr (NE Corner) - BUS713N",,40.388342,-86.834049,0
ddb646b8-0df8-46cd-be5d-aa0e9b8ab3bd,BUS973,"(Southeast of) Bonlou & SR 25/38 - BUS973",,40.3878997497499,-86.8366923532899,0
9f00567d-83db-42fa-957e-dccc84d4ca22,BUS106,"Kestral Blvd at Sandpiper (SW Corner) - BUS106","Kestral Blvd at Sandpiper (SW Corner) BUS106",40.4438412454034,-86.9382676147382,0
cf1d8daa-fc6f-4b9f-9aa5-b584ac12a485,BUS463,"Lindberg Rd & Kestral Blvd (SE Corner) - BUS463","Lindberg Rd & Kestral Blvd (SE Corner)  BUS463",40.4459159342,-86.9366663358609,0
13ddbb7f-9276-41ae-ba0a-91822f897481,BUS103,"Blackbird Farms on Kestral Blvd (@Shelter) -BUS103","Blackbird Farms on Kestral Blvd (@Shelter)  BUS103",40.4451769855724,-86.9420495296746,0
c28a4f09-82da-41c5-a2ad-923d8191c0e4,BUS894,"Campus Suites Apts (at Shelter) - BUS894",,40.4721372110925,-86.9457684126954,0
7c3a5883-2e14-41e0-85f8-e8be8a4968ba,BUS988,"Ellison Dr & Halyard Ct (SW Corner) - BUS988",,40.4722297473091,-86.9427857960931,0
a14471a5-9bfb-4c6f-b032-639b15b44188,LSC001,"Sunnyside School (by request during LSC Calendar)",,40.4217250896529,-86.8680084865098,0
2362b660-1d88-4717-806f-587c05d69978,BUS902,"Blueberry Ln & Klondike Rd (NW Corner) - BUS902",,40.4385291301327,-86.9620158947716,0
36bd18b7-851b-490a-9d4a-187ca03e260a,BUS176,"Klondike Rd & SR 26 - BUS176","Klondike Rd & SR 26 BUS176",40.4370740316554,-86.9619086064046,0
f78a41ff-87dc-46f1-b3aa-20a643869e8d,BUS173,"Scarlett & SR 26 (SW Corner) - BUS173","Scarlett & SR 26 (SW Corner) BUS173",40.4341987034201,-86.9555718872292,0
39808998-e058-4cae-922d-20a27ee30d45,BUS175,"E Pine Ave & Klondike Rd - BUS175","E Pine Ave & Klondike Rd BUS175",40.4399104678577,-86.9620266236083,0
7396e953-606e-44ae-8ba4-ce7fb8052ed5,BUS903,"Rosewood Dr & Klondike Rd (NW Corner) - BUS903",,40.4439297583061,-86.9620453990725,0
72c5e913-dbec-4f6e-984c-acade03369a2,BUS572,"Georgetown Rd & Klondike Rd (NW Corner) - BUS572","Georgetown Rd & Klondike Rd (NW Corner) BUS572",40.4417290056782,-86.9620360113404,0
50e903ea-180d-419a-8f43-6321108ee0b7,BUS201W,"(South of) Jischke Dr & Stadium Ave - BUS201W","(South of) Jischke Dr & Stadium Ave BUS201W",40.4313689727407,-86.9216540111097,0
340a8eaa-acc2-4224-ae85-b3c3e8e52efc,BUS362W,"RSC on Jischke Dr - BUS362W","RSC on Jischke Dr BUS362W",40.4286237316503,-86.9218203080786,0
35eb952c-62b7-4827-b2f4-2933bb39af0b,BUS243S,"7th St & Columbia St (SE Corner) - BUS243S","7th St & Columbia St (SE Corner) BUS243S",40.418197984588,-86.888614558495,0
2493e5db-5b84-4b35-b6d0-d6675d9b858c,rBUS958,"Jeremiah & Elijah (NW Corner) - BUS958",,40.4837726344927,-86.8936007853508,0
0078a105-1063-44a0-ad17-a10ab60a0c2d,BUS957,"Jeremiah & Isaiah (NE Corner) - BUS957",,40.4859774104343,-86.8935820098866,0
